gbifID,countryCode,locality,individualCount,decimalLatitude,decimalLongitude,depth,day,month,year
998034238,ID,Lekuan Ii,,1.60122,124.765,7.5,11.0,8.0,2014.0
998034233,ID,Lekuan I,,1.59622,124.768,11.0,11.0,8.0,2014.0
998033766,TH,Bay 3 (Konkare Bay),,7.59967,98.3751,9.55,5.0,12.0,2011.0
986401511,CO,Mar Caribe. Arrecife Plan Parejo Bahía Capurganá,1.0,8.63176,-77.34085,,4.0,1.0,2011.0
930946617,EG,Far Garden,,27.9154,34.3588,7.15,25.0,8.0,2012.0
930946615,EG,Middle Garden,,27.9149,34.3524,6.5,31.0,5.0,2014.0
930946486,EG,Ras Mohammed National Park,,27.74,34.2458,9.0,24.0,8.0,2012.0
930946450,KY,Lighthouse Wall,,19.2936,-81.0939,15.07,30.0,6.0,2014.0
930946388,BZ,Tuffy Canyons,,18.0016,-87.9433,9.145,9.0,2.0,2013.0
930946232,HN,One Minute West,,16.3833,-86.4,8.23,1.0,7.0,2013.0
930946211,EG,Oonas House Reef,,27.9153,34.3358,5.0,22.0,8.0,2012.0
930946197,EG,Ras Mohammed National Park,,27.74,34.2458,9.0,24.0,8.0,2012.0
930946184,EG,Oonas House Reef,,27.9153,34.3358,5.0,22.0,8.0,2012.0
930946161,EG,White Knights,,27.9633,34.4199,8.3,25.0,8.0,2012.0
930946111,EG,Oonas House Reef,,27.9153,34.3358,5.75,22.0,8.0,2012.0
930946064,EG,The Kingston Wreck,,27.7833,33.8833,8.0,26.0,1.0,2014.0
930946009,MX,Punta Negra,,21.1275,-86.7369,7.05,30.0,6.0,2014.0
930945945,HN,Hottest Sparrow Channel,,16.355,-86.5015,12.65,3.0,7.0,2013.0
930945934,EG,Temple,,27.8473,34.3088,9.0,26.0,1.0,2014.0
930945755,EG,Lighthouse,,28.4991,34.5197,15.0,8.0,7.0,2014.0
930945550,MV,Fesdu Lagoon,,3.98627,72.7663,5.05,2.0,5.0,2014.0
930945530,MV,Fesdu Wreck,,3.99921,72.7832,14.25,2.0,5.0,2014.0
919317415,KY,Duppys,,19.7127,-79.8389,10.5,21.0,6.0,2014.0
919317360,BS,Vicky's Reef,,24.028,-74.5343,11.43,1.0,6.0,2014.0
919317311,KY,Turtle Reef,,19.3827,-81.4171,8.5,11.0,6.0,2014.0
919317284,US,Labontee Reef,,26.2379,-80.1248,5.335,16.0,6.0,2014.0
919317268,BS,Runway 10,,24.0648,-74.5455,10.21,31.0,5.0,2014.0
919317240,EG,Ss Thistlegorm,,27.8133,33.9208,9.3,31.0,12.0,2013.0
919317228,PH,Kontiki House Reef,,10.282,124.0,9.0,15.0,6.0,2014.0
919317224,KY,North West Point,,19.3779,-81.4205,15.0,12.0,6.0,2014.0
919317156,AU,Clovelly Pool,,-33.9177,151.273,3.0,3.0,5.0,2014.0
919317059,US,Markham,,33.961,-77.553,12.495,21.0,9.0,2012.0
919316941,SX,Divi,,18.0155,-63.0646,5.03,29.0,5.0,2014.0
919140059,BZ,Belize,,17.6342,-87.3012,,15.0,4.0,2011.0
919139962,BZ,Belize,,17.6342,-87.3012,,15.0,4.0,2011.0
911506281,AU,,,-14.668626,145.566101,,5.0,12.0,2012.0
911504752,AU,,,-14.915592,145.675278,,3.0,1.0,2012.0
911503508,AU,,,-15.517867,145.778961,,1.0,1.0,2012.0
911501638,AU,,,-14.927535,145.675964,,31.0,12.0,2011.0
911440715,ID,Lembeh Resort House Reef,,1.45699,125.242,11.5,18.0,5.0,2014.0
911440697,HN,Sturges Bank,,16.0735,-86.9236,8.1,27.0,8.0,2013.0
911440649,GD,Whibbles,,12.0185,-61.804,12.3,27.0,4.0,2014.0
911440617,AU,Navy Pier,,-21.8166,114.191,6.25,11.0,5.0,2014.0
911440616,ID,Coral Garden,,-8.277,115.594,5.0,24.0,3.0,2014.0
911440603,AU,Navy Pier,,-21.8166,114.191,6.6,11.0,5.0,2014.0
911440563,ID,Jemeluk Left,,-8.33752,115.66,8.85,16.0,5.0,2014.0
911440546,VU,Coral Gardens,,-17.5689,168.223,6.5,24.0,4.0,2014.0
911440542,VE,Isla El Mono,,10.4672,-64.5178,18.5,26.0,4.0,2014.0
911440468,GD,Whibbles,,12.0185,-61.804,12.3,27.0,4.0,2014.0
911440467,GD,Purple Rain,,12.017,-61.7977,8.8,24.0,4.0,2014.0
911440455,GD,Purple Rain,,12.017,-61.7977,8.8,24.0,4.0,2014.0
911440409,ID,Coral Garden 1,,-6.05862,106.573,8.45,26.0,4.0,2014.0
911440383,TH,Koh Haa 1 (Neung),,7.43321,98.8969,9.5,29.0,4.0,2014.0
911440332,EG,Ras Ghozlani,,27.7921,34.2625,9.65,23.0,7.0,2010.0
911440307,EG,Jackfish Alley,,27.7667,34.2567,11.65,23.0,7.0,2010.0
911440282,DO,,,19.6332,-69.8873,7.15,7.0,12.0,2009.0
911440280,EG,Shark & Yolanda Reef,,27.7217,34.25,14.6,23.0,7.0,2010.0
911440255,EG,Temple,,27.8473,34.3088,9.3,22.0,7.0,2010.0
911440252,PH,Friday's Rock,,11.9686,121.905,8.37,20.0,8.0,2004.0
911440233,TH,Koh Haa Lagoon,,7.42953,98.8956,10.0,29.0,4.0,2014.0
911440226,EG,Ras Katy,,31.1978,29.9012,11.35,22.0,7.0,2010.0
911440223,GD,Kahonee,,12.0186,-61.7907,8.84,17.0,5.0,2014.0
899970525,MX,,,21.606356,-87.109664,,23.0,7.0,2011.0
896186119,EG,Sha'ab Sheer Coral Paradise,,26.6555,34.041,11.0,17.0,4.0,2014.0
896186048,AU,Bundegi Beach Bills Way,,-21.818,114.189,3.9,12.0,8.0,1989.0
896186008,MY,Barracuda Point,,4.1209,118.629,12.5,6.0,7.0,2011.0
896185998,EG,Pinky Wall,,27.871,34.3232,8.35,16.0,4.0,2001.0
896185997,EG,The Temple,,27.874,34.3344,9.65,16.0,4.0,2001.0
896185996,EG,The Tower,,27.9031,34.3312,9.1,15.0,4.0,2001.0
896185932,MY,Paradise 2,,4.24895,118.629,6.5,4.0,7.0,2011.0
896185799,TH,Richelieu Rock,,9.33932,98.0983,12.8,4.0,2.0,2013.0
896185634,KY,Great Wall East,,19.6831,-80.0845,32.5,17.0,3.0,2014.0
896185615,KY,Coconut Wall,,19.6808,-80.0904,33.5,17.0,3.0,2014.0
896185584,AU,Castle Rock (Agincourt Reef 1),,-16.0663,145.863,7.5,14.0,2.0,2011.0
896185583,AU,St. Crispin Reef,,-16.1026,145.844,6.0,14.0,2.0,2011.0
896185578,TC,Coral Cable,,21.804,-72.2047,8.99,8.0,3.0,2014.0
896185576,VE,Malecon,,10.6222,-66.8452,3.5,23.0,2.0,2013.0
896185575,VE,El Velero,,10.6216,-66.8464,3.0,24.0,2.0,2013.0
896185572,TC,Aquarium West,,21.8083,-72.2257,12.19,8.0,3.0,2014.0
896185554,TH,Koh Bida Nai,,7.657,98.767,9.0,20.0,1.0,2010.0
896185545,TH,Malong,,7.67889,98.765,9.0,19.0,1.0,2010.0
896185544,TH,Palong,,7.6916,98.7561,7.5,20.0,1.0,2010.0
896185528,EG,El Aruk Aruk Giftun,,27.1675,33.9515,6.0,12.0,9.0,2012.0
893352064,EG,Shaab Gramila,,29.4926,34.8949,4.75,26.0,2.0,2014.0
893352043,MV,Hausriff Jetty A,,3.5788,72.9021,6.0,14.0,2.0,2014.0
893352037,VE,Isla Larga Puerto Cabello (Venezuela West),,10.4887,-67.9494,6.0,11.0,1.0,2014.0
893352031,CO,Parque Tairona,,11.29,-74.1534,9.0,6.0,1.0,2014.0
893352030,AU,Navy Pier,,-21.8166,114.191,7.0,5.0,4.0,2013.0
893351956,VE,Isla Larga Puerto Cabello (Venezuela West),,10.4887,-67.9494,6.0,11.0,1.0,2014.0
893351920,EG,Eagles Ray Bay,,27.9502,34.3946,9.0,18.0,2.0,2014.0
893351896,AU,Green Island Reef,,-16.7671,145.994,5.0,14.0,3.0,1993.0
893351875,KE,Kisite Point,,-4.71917,39.3697,9.0,19.0,2.0,2014.0
893351828,ID,Sanur Channel,,-8.73361,115.22,3.95,14.0,6.0,2012.0
893351738,PH,Sabang Wrecks,,13.5248,120.976,9.75,4.0,2.0,2014.0
893351700,ID,"Arus Balee, Aceh",,5.86016,95.2828,9.0,26.0,1.0,2014.0
893351601,PH,Copton Point,,9.98812,123.367,11.0,18.0,11.0,2011.0
891772049,ID,,,-8.245205,119.117542,,24.0,9.0,2008.0
891766795,BQ,,,17.616263,-63.258725,,5.0,7.0,2012.0
891766213,BQ,,,17.631368,-63.26129,,5.0,7.0,2012.0
891755219,BQ,,,17.633421,-63.274132,,2.0,7.0,2012.0
891755054,BQ,,,17.632718,-63.274875,,1.0,7.0,2012.0
891754881,BQ,,,17.631654,-63.272558,,30.0,6.0,2012.0
891740091,MX,,,19.407021,-95.924377,,6.0,9.0,2013.0
891726342,PW,,,7.341944,134.479167,,13.0,3.0,1993.0
891724404,ID,,,1.448324,125.224381,,15.0,7.0,2013.0
891711849,BZ,,,16.819361,-88.080912,,2.0,6.0,2013.0
891711508,BZ,,,16.760824,-88.122025,,3.0,6.0,2013.0
891711092,BZ,,,16.762468,-88.087006,,31.0,5.0,2013.0
891172117,US,,,24.824026,-80.813678,,29.0,6.0,2013.0
891157428,ID,,,1.413847,124.707563,,22.0,4.0,2013.0
891148324,ID,,,1.464447,125.230188,,17.0,4.0,2013.0
891145739,ID,,,1.464447,125.230188,,16.0,4.0,2013.0
891104018,KY,,,19.287057,-81.145706,,24.0,7.0,2012.0
891090837,ID,,,-0.583333,130.6,,3.0,7.0,2012.0
891090160,BQ,,,17.645934,-63.254821,,29.0,6.0,2012.0
891087303,US,,,24.824026,-80.813678,,25.0,6.0,2012.0
891083122,MX,,,20.01104,-87.27739,,25.0,5.0,2012.0
891069788,TH,,,7.743484,98.775656,,31.0,12.0,2008.0
891069417,PH,,,14.803596,120.238838,,8.0,3.0,2007.0
891056755,MX,,,19.158919,-96.047974,,14.0,2.0,2012.0
891042825,PG,,,-9.51529,147.264923,,27.0,7.0,2011.0
891035553,CO,,,11.29122,-74.199432,,8.0,6.0,2011.0
890046203,MV,Kuda Thila,,4.20113,72.811,13.0,26.0,12.0,2011.0
890046140,EG,Naama Bay Werner Lau House Reef,,27.9078,34.3277,10.5,14.0,1.0,2014.0
890046083,MV,Fesdu,,3.21529,73.0368,11.0,27.0,12.0,2011.0
890046071,TH,Koh Haa Lagoon,,7.42953,98.8956,12.65,9.0,1.0,2014.0
890046016,TH,Koh Haa 6,,7.42702,98.8883,10.0,17.0,1.0,2014.0
890046014,KY,Blue Peter Reef,,19.3829,-81.3218,8.38,15.0,1.0,2013.0
890045998,MV,Filitheyo House Reef,,3.21529,73.0368,5.5,21.0,12.0,2011.0
890045956,HN,Don Quickset,,16.103,-86.9782,10.5,1.0,7.0,2010.0
890045950,MX,Angelitas,,20.484,-87.2344,6.095,28.0,12.0,2013.0
890045926,MX,Angelitas,,20.484,-87.2344,6.095,26.0,12.0,2013.0
890045895,HR,,,42.6507,18.0944,8.05,4.0,11.0,1999.0
890045850,HN,Blackfish Point,,16.1217,-86.9239,10.0,30.0,6.0,2010.0
890045715,MX,Cuervitas,,20.4865,-87.2268,6.86,28.0,12.0,2013.0
890045666,MV,Kurumba Reef,,1.82188,73.4905,12.95,9.0,12.0,2013.0
890045655,HN,Ironbound,,16.095,-86.9274,7.5,28.0,6.0,2010.0
890045638,MX,Angelitas,,20.484,-87.2344,6.095,25.0,12.0,2013.0
866343749,PR,San Juan Reef,,18.4638,-66.0837,5.0,22.0,10.0,2010.0
866343734,PR,San Juan Reef,,18.4638,-66.0837,5.0,22.0,10.0,2010.0
866343730,KY,Mc Kennys Canyon,,19.293,-81.091,14.735,12.0,12.0,2013.0
866343664,US,Mercedes I,,26.1562,-80.0752,13.26,29.0,12.0,2013.0
866343656,EG,Halgel Desha,,27.3099,33.9079,12.15,22.0,7.0,2005.0
866343604,EG,El Aruk Aruk Gigi,,27.169,33.9562,5.8,20.0,7.0,2005.0
866343580,ZA,Hotspot,,-27.535,32.691,14.0,17.0,12.0,2013.0
866343374,PH,South Entalula,,11.064,119.372,8.55,11.0,11.0,2013.0
866343355,VE,Punta Norte,,10.9897,-65.2725,5.0,21.0,7.0,2013.0
866343325,ID,Padangbai Blue Lagoon,,-8.52967,115.514,11.45,7.0,12.0,2013.0
866343323,TH,Siam Bay,,7.98431,98.3307,9.65,30.0,11.0,2013.0
866343295,PH,South Miniloc,,11.1505,119.315,6.4,10.0,11.0,2013.0
866343290,EG,El Fanadir North,,27.3047,33.8257,7.6,28.0,11.0,2013.0
866343244,NI,Jakes Place,,12.2779,-82.9832,8.0,25.0,6.0,2010.0
866343154,AU,Clowns Bommie,,-16.7296,146.268,9.0,15.0,6.0,2012.0
866343114,EG,"Sataya East, Sataya Reef",,24.1587,35.711,7.5,31.0,10.0,2008.0
866343045,EG,El Fanadir North,,27.3047,33.8257,5.5,6.0,8.0,2012.0
866343040,PH,El Capitan,,12.8797,121.774,6.0,20.0,9.0,2013.0
866343034,PH,El Capitan Uss Majaba,,14.7679,120.253,9.0,20.0,9.0,2013.0
866342842,MY,Shark Point,,5.88084,102.743,8.1,17.0,10.0,2013.0
866342826,HN,Butchers Bank,,16.3833,-86.4,13.0,12.0,9.0,2013.0
866342807,HN,Turtle Crossing,,16.3095,-86.6087,9.5,16.0,9.0,2013.0
866342790,HN,"Temptation Reef, West Bay",,16.3833,-86.4,10.5,10.0,9.0,2013.0
866342752,EG,Lighthouse,,28.4991,34.5197,9.0,19.0,6.0,2012.0
866342711,HN,Seaquest,,16.3833,-86.4,49.0,12.0,11.0,2013.0
866342611,EG,Ss Thistlegorm,,27.8133,33.9208,12.2,4.0,11.0,2013.0
866342595,HN,Mandy's,,16.3095,-86.6197,50.0,10.0,11.0,2013.0
864253311,AU,"GREAT BARRIER REEF, PATCH REEF 1, NORTH OF LITTLE HOPE ISLAND",1.0,-15.75,145.7,,20.0,1.0,1969.0
863171403,PH,"Negros Island, Dumaquete",3.0,9.31791,123.32472,,,,1949.0
863129850,PH,[no specific locality data],1.0,11.88309,122.85194,,,,
863122550,ID,"Seram Island, Wahaai",1.0,-2.75038,129.37354,,,,
863110245,QA,[no specific locality data],3.0,26.75053,51.68343,,,,
863106568,AU,"Cairns, at Cooktown Station, Great Barrier Reef",1.0,-16.8958,146.26471,,,7.0,1947.0
863104284,TH,off Thailand,2.0,11.84988,100.97803,,,,
863103498,CN,Canton [Kwangtung],1.0,23.1112,113.25137,,,,
863083368,MU,[no specific locality data],1.0,-20.44419,57.77559,,,,
863075932,SA,[no specific locality data],1.0,20.60965,38.42468,,,,
857015669,ID,Hairball Two (Indonesia Lembeh Strait),,1.49678,125.242,13.1,3.0,11.0,2013.0
857015587,EG,Marsa Shona Sogayar,,25.4176,34.6952,5.5,11.0,1.0,2012.0
857015579,EG,Eshta,,27.2579,33.8116,4.85,11.0,6.0,2013.0
857015573,EG,Marsa Shona Sogayar,,25.4176,34.6952,6.0,11.0,1.0,2012.0
857015451,EG,El Fanadir South,,27.2697,33.8356,16.5,19.0,10.0,2013.0
857015441,EG,El Fanous West,,27.2256,33.8977,6.0,18.0,10.0,2013.0
857015425,EG,El Fanous East,,27.2256,33.8977,9.65,18.0,10.0,2013.0
857015403,EG,El Fanadir North,,27.3047,33.8257,21.8,15.0,10.0,2013.0
857015390,HN,Bikini Bottom,,16.3833,-86.4,38.0,29.0,9.0,2013.0
857015355,MV,Moofushi House Reef,,3.88565,72.7274,6.0,29.0,12.0,2002.0
857015295,JO,Rainbow Reef,,29.4551,34.9717,15.0,19.0,10.0,2013.0
857015206,EG,House Reef Pharao,,27.0905,33.8567,6.5,19.0,7.0,2004.0
857015166,EG,Bannerfish Bay,,28.4989,34.5187,5.95,20.0,4.0,2013.0
857015104,US,Blue Fire,,25.548,-80.077,17.985,12.0,10.0,2013.0
857015097,US,Blue Fire,,25.548,-80.077,17.22,12.0,10.0,2013.0
857014805,JO,Cedar Pride Wreck,,29.43,34.973,12.5,17.0,9.0,2013.0
857014513,PH,"Crossing, Puerto Princesa",,9.95412,118.835,11.0,14.0,9.0,2013.0
857014039,EG,Fiddle Garden,,27.9159,34.3578,6.0,27.0,8.0,2011.0
857013981,EG,Ras Ghamila,,27.9735,34.4285,9.05,4.0,4.0,2012.0
857013939,BS,Mike's Reef,,24.9707,-77.5342,10.12,30.0,8.0,2013.0
857013906,MV,Ariyadhoo Kandu,,3.48326,72.8028,9.25,16.0,8.0,2006.0
857013853,US,Crocker Reef,,24.9025,-80.5307,5.64,24.0,8.0,2013.0
857013762,KY,Inside Out,,19.688,-79.8455,15.0,30.0,7.0,2013.0
857013488,KY,,,19.368,-81.1739,15.39,20.0,8.0,2011.0
857013479,KY,Hammerhead Hole,,19.336,-81.3892,8.685,19.0,8.0,2011.0
857013463,KY,,,19.3535,-81.2217,13.87,19.0,8.0,2011.0
857013433,JM,,,18.4895,-77.9303,7.47,24.0,11.0,2009.0
857013424,JM,,,18.4932,-77.9416,7.165,23.0,11.0,2009.0
857013422,KE,Coral Garden,,-3.99784,39.7511,4.5,29.0,8.0,1987.0
857013418,JM,Rocky Shallows,,18.4744,-77.9178,5.64,22.0,11.0,2009.0
857013251,AU,Julian Rocks,,-28.6114,153.629,9.0,9.0,1.0,2013.0
857013216,US,Ron's Rock,,26.7776,-79.9966,9.0,3.0,8.0,2010.0
857013196,JP,Bolo Point,,26.4415,127.713,14.935,4.0,8.0,2013.0
857013122,KY,Notre Dame,,19.3656,-81.4092,14.325,20.0,8.0,2011.0
857013030,VI,Spot 85,,17.7802,-64.795,12.955,27.0,7.0,2013.0
857012898,JP,Kadena North,,26.3597,127.739,5.335,8.0,6.0,2013.0
857012740,MV,Makunudu Giri Ii,,6.40979,72.7053,12.5,20.0,6.0,2000.0
857012735,MV,Eri Faru,,6.40979,72.7053,10.0,19.0,6.0,2000.0
857012636,US,U 352,,34.1368,-76.3391,16.0,8.0,7.0,2013.0
857012595,ID,Tulamben Wreck Us Liberty,,-8.29321,115.589,9.0,7.0,6.0,2013.0
857012569,ID,Uss Liberty Wreck,,-8.27535,115.593,9.0,6.0,6.0,2013.0
857012551,MX,,,18.7143,-87.7065,5.335,6.0,4.0,2012.0
857012548,AU,Troppos,,-16.417,146.059,9.0,24.0,5.0,2013.0
857011747,JM,Tessa's Reef,,18.4796,-77.3328,4.635,12.0,5.0,2012.0
857011718,GP,Petite Ancre,,15.8712,-61.291,12.0,26.0,6.0,2013.0
857011683,IN,Havelock Islands,,11.9676,92.6984,7.15,23.0,1.0,2013.0
857011631,IN,White House Rock,,12.0071,92.9767,12.8,21.0,4.0,2013.0
857011582,GP,Ti Caye,,15.8703,-61.3371,10.0,28.0,6.0,2013.0
857011524,VN,South Point Boulderfield,,8.68574,106.743,10.7,12.0,6.0,2013.0
857011456,PH,Mainit Bubbles,,13.68,120.895,9.145,9.0,6.0,2013.0
857011259,VE,Malecon,,10.5978,-67.0006,1.525,23.0,2.0,2013.0
857011255,VE,Malecon,,10.5978,-67.0006,1.83,23.0,2.0,2013.0
857011248,VN,Over The Top (3 Rocks/ Northpoint),,8.69912,106.74,9.3,6.0,6.0,2013.0
857011211,EG,Mangrove Bay Housereef,,25.8689,34.4197,7.165,23.0,5.0,2013.0
857011208,EG,Abu Kefan South,,26.6531,34.1086,13.41,24.0,5.0,2013.0
857011205,EG,Elphinstone Reef,,25.3111,34.8612,14.785,23.0,5.0,2013.0
857011179,EG,Tobia Arbaa,,26.8251,33.9849,11.58,19.0,5.0,2013.0
857011146,EG,Gota Abu Ramada,,27.1399,33.9535,5.79,19.0,5.0,2013.0
857011009,ID,Halik Reef,,-8.33498,116.032,6.0,24.0,9.0,2012.0
857010963,AU,Fitzroy Island,,-16.9326,145.986,4.6,27.0,4.0,2013.0
857010927,EG,Marsa Shagra North Reef,,25.2457,34.7982,6.55,17.0,4.0,2013.0
857010917,EG,El Minya,,27.2316,33.8579,15.0,4.0,5.0,2013.0
857010858,EG,Sha'ab Talata,,27.1412,33.8835,6.0,2.0,5.0,2013.0
857010850,EG,South Abu Ramada,,27.1586,33.9789,15.0,2.0,5.0,2013.0
857010772,EG,Susana Wreck,,27.2107,33.8482,9.5,11.0,4.0,2006.0
857010724,EG,Tobia Arbaa,,26.8251,33.9849,10.0,4.0,5.0,2012.0
857010710,ID,Pasir Putih,,-7.69433,113.826,2.2,9.0,4.0,2013.0
857010696,MV,Kuredu House Reef,,5.55,73.45,6.0,8.0,12.0,2001.0
857010684,TZ,"Zanzíbar, Mnemba Atoll",,-5.84439,39.3364,8.0,17.0,11.0,2001.0
857010651,FJ,Plantation Pinnacles,,-17.85,177.167,6.45,3.0,11.0,2009.0
857010639,TZ,"Zanzíbar, Mnemba Atoll",,-5.84439,39.3364,12.5,17.0,11.0,2001.0
857010575,AU,Bundegi,,-21.8729,114.13,3.5,4.0,8.0,2006.0
857010521,MY,Sunday 11,,4.22905,113.742,7.15,31.0,3.0,2013.0
857010495,MY,Anemone Garden,,4.2674,113.72,7.0,30.0,3.0,2013.0
857010436,PH,Divers' Heaven,,9.51246,123.683,10.5,4.0,2.0,2013.0
857010410,PH,Alona Beach,,9.59869,123.799,9.0,5.0,2.0,2013.0
857009956,EG,Naama Bay,,27.9034,34.3391,7.95,3.0,3.0,2013.0
857009863,ID,Dock,,-5.75,106.617,8.5,24.0,2.0,2013.0
857009766,MV,Veligandu North,,4.32022,73.0071,7.0,18.0,5.0,2012.0
857009742,US,Key Largo,,25.0708,-80.4246,5.0,25.0,6.0,2012.0
857009643,PH,Alona Beach,,9.59869,123.799,5.4,23.0,10.0,2012.0
857009601,VN,"Rainbow Reef, Vietnam",,12.1829,109.295,4.25,20.0,10.0,2012.0
857009503,TH,"Phuket Racha Yai, Bungalow Bay",,7.59106,98.367,7.0,30.0,3.0,2010.0
857009491,TH,"Phuket Racha Yai, Bungalow Bay",,7.59106,98.367,7.5,26.0,11.0,2011.0
857009385,EG,Coral Garden,,28.5549,34.521,8.4,13.0,9.0,2012.0
857009362,EG,Shabrur Umm Gamar,,27.3608,33.9155,20.0,4.0,1.0,2013.0
857009336,EG,El Fanadir South,,27.2697,33.8356,6.0,1.0,1.0,2005.0
857009332,EG,El Gilwa East,,27.5576,33.8729,6.85,30.0,12.0,2012.0
857009320,TH,Shark Point,,7.74348,98.7757,9.0,13.0,2.0,2010.0
857009297,EG,Dolphin House,,27.4089,33.8542,7.0,30.0,12.0,2012.0
857009284,ID,Jemeluk,,-8.33677,115.662,6.0,27.0,4.0,2009.0
857009205,PH,Sombrero Island,,13.6995,120.826,9.85,2.0,1.0,2013.0
857009006,MM,North Calventuras Island,,16.8879,94.2726,5.44,27.0,12.0,2012.0
857008972,MX,Moc Che Deep,,20.6914,-86.9109,13.0,27.0,12.0,2012.0
857008892,KY,Chinese (Or Japanese West) Gardens,,19.2678,-81.3474,7.6,22.0,11.0,2012.0
857008887,KY,Pallas Reef,,19.3222,-81.2409,8.1,22.0,11.0,2012.0
857008877,KY,Gary's Reef,,19.2645,-81.373,8.55,23.0,11.0,2012.0
857008848,PH,Dolphin Point,,9.95566,123.401,10.0,12.0,12.0,2012.0
857008807,EG,The Kimon M,,27.5813,33.9303,13.0,7.0,11.0,2012.0
857008800,DO,Catuan Ship Wreck,,18.4319,-69.5798,10.0,19.0,12.0,2012.0
857008630,SC,One Tree Island,,-4.73919,55.4653,6.0,15.0,10.0,2012.0
857008620,DO,Canyons Ii,,18.4378,-69.614,9.0,15.0,12.0,2012.0
857008615,SC,Stalk Patch,,-4.69772,55.3973,12.0,15.0,10.0,2012.0
857008592,SC,One Tree Island,,-4.73919,55.4653,6.0,11.0,10.0,2012.0
857008469,EG,Ss Thistlegorm,,27.8133,33.9208,12.25,8.0,11.0,2012.0
857008437,MV,Banana Reef,,4.24139,73.5346,10.5,7.0,12.0,2012.0
857008425,EG,El Fanous West,,27.2256,33.8977,6.0,22.0,9.0,2012.0
857008402,EG,Gordon Reef,,27.9845,34.4532,11.3,4.0,11.0,2012.0
857008391,SC,Stalk Patch,,-4.69772,55.3973,11.5,11.0,10.0,2012.0
857008335,SC,One Tree Island,,-4.73919,55.4653,6.0,6.0,10.0,2012.0
857008284,EG,Shaab Iris,,27.2243,33.9086,6.0,27.0,9.0,2012.0
857008245,AU,Gulliver's (Lighthouse Bay Area),,-21.7701,114.17,6.5,5.0,11.0,2002.0
857008168,MX,Paret Faro,,20.8421,-86.8661,7.0,19.0,11.0,2012.0
857008097,EG,El Famous,,27.4467,33.8113,7.0,24.0,10.0,2007.0
857008093,EG,Turtle Bay,,27.539,33.7773,5.4,24.0,10.0,2007.0
857007899,FR,Pointe De La Croix,,43.05,6.46667,7.0,14.0,7.0,2008.0
857007877,DO,Coral Garden,,18.4421,-69.6029,6.0,4.0,11.0,2012.0
857007787,DO,Catuan Ship Wreck,,18.4319,-69.5798,9.0,5.0,11.0,2012.0
857007740,EG,Lighthouse,,28.4991,34.5197,6.0,29.0,10.0,2012.0
857007725,EG,Elphinstone Reef,,25.3111,34.8612,18.4,11.0,8.0,2004.0
857007693,EG,Abu Dabab Ii,,25.3474,34.7765,7.5,6.0,8.0,2004.0
857007688,EG,Sharm Anbaut,,24.9645,34.9404,9.35,10.0,8.0,2004.0
857007673,EG,Sharm Anbaut,,24.9645,34.9404,14.7,10.0,8.0,2004.0
857007659,EG,Eagles Ray Bay,,27.9502,34.3946,6.6,12.0,10.0,2010.0
857007613,PA,Dolphin Rock,,9.35076,-82.1863,7.06,24.0,10.0,2012.0
857007583,ID,Panjang Reef,,-8.26578,117.492,10.5,4.0,7.0,2000.0
857007524,EG,Eagles Ray Bay,,27.9502,34.3946,10.0,12.0,10.0,2010.0
857007493,EG,"Gota Abu Ramada East ""Coral Garden""",,27.134,33.9749,7.0,10.0,11.0,2011.0
857007481,TC,Gorgonian Drop Off,,21.694,-71.7979,13.85,19.0,2.0,2010.0
857007435,EG,Ss Thistlegorm,,27.8133,33.9208,14.9,14.0,10.0,2010.0
857007408,EG,Torfa Fanous East,,27.2674,33.8879,7.0,9.0,11.0,2011.0
857007378,EG,Lighthouse,,28.4991,34.5197,7.0,31.0,7.0,2011.0
857007348,EG,Bannerfish Bay,,28.4989,34.5187,5.0,30.0,7.0,2011.0
857007297,US,Third Gully,,26.7153,-80.0534,11.3,21.0,2.0,2012.0
857007284,EG,Ras Caty,,27.8473,34.3019,6.0,19.0,5.0,2008.0
857007227,TC,North West Point,,21.7834,-72.2341,12.95,15.0,2.0,2010.0
857007037,CO,Grieta Isla Narza,,8.64026,-77.3375,16.84,2.0,10.0,2012.0
857006980,AU,Ex Hmas Brisbane,,-26.6246,153.15,12.4,27.0,9.0,2012.0
857006968,MU,Coral Garden,,-19.982,57.5872,10.0,22.0,8.0,2012.0
857006925,EG,Fiddle Garden,,27.9159,34.3578,10.0,7.0,12.0,2006.0
857006881,EG,Woodhouse Reef,,28.0018,34.4662,12.5,8.0,12.0,2006.0
857006832,ID,Gili Tepekong The Canyon,,-8.53273,115.584,10.0,19.0,8.0,2012.0
857006782,ID,Blue Lagoon,,-8.53005,115.514,10.0,12.0,8.0,2012.0
857006526,MY,Sipadan Water Village Paradise 2,,4.20363,118.692,5.0,17.0,9.0,2012.0
857006516,MY,Sipadan Water Village Paradise 2,,4.24892,118.632,6.0,18.0,9.0,2012.0
857006448,MY,Lobster Wall,,4.17761,118.708,10.0,18.0,9.0,2012.0
857006359,EG,The Islands,,28.4773,34.5127,12.5,14.0,9.0,2012.0
857006332,EG,The Canyon,,28.5548,34.5208,9.15,5.0,6.0,2012.0
857006322,MU,Stella Maru Wreck,,-19.982,57.5872,10.455,6.0,9.0,2012.0
857006309,EG,Lighthouse,,28.4991,34.5197,4.5,6.0,9.0,2012.0
857006303,EG,Lighthouse,,28.4991,34.5197,9.0,8.0,9.0,2012.0
857006292,MU,Aquarium Reef,,-19.9895,57.5656,6.96,7.0,9.0,2012.0
857006236,EG,Lighthouse,,28.4991,34.5197,5.0,28.0,10.0,2011.0
857006135,TL,Dili Rock East,,-8.55672,125.5,9.0,12.0,5.0,2012.0
857006096,MX,Moc Che Shallow,,20.6962,-86.9343,10.0,8.0,9.0,2012.0
857006080,MX,Moc Che Deep,,20.6914,-86.9109,15.0,8.0,9.0,2012.0
857006047,EG,Ras Ghozlani,,27.792,34.2611,9.0,5.0,10.0,2009.0
857006026,ID,Lekuan Iii,,1.60757,124.766,9.45,16.0,4.0,2012.0
857005866,MV,Mv Vagaaru,,3.94089,73.4895,15.3,1.0,6.0,2008.0
857005838,MV,Bapoli Thila,,1.97725,73.5361,8.8,17.0,2.0,2007.0
857005768,ID,Meno Wall,,-8.35197,116.049,9.0,23.0,8.0,2012.0
857005760,MY,Police Wreck,,5.90646,102.74,7.9,19.0,8.0,2012.0
857005758,ID,Halik Reef,,-8.33546,116.029,9.0,23.0,8.0,2012.0
857005740,CU,Sandals Reef,,23.2093,-81.1895,3.0,31.0,7.0,2012.0
857005644,MY,Sugar Wreck,,5.8703,102.686,9.3,21.0,8.0,2012.0
857005498,ID,Turtle City,,1.61667,124.75,9.0,12.0,8.0,2012.0
857005418,AI,Wreck Of The Mv Sarah,,18.2579,-63.197,12.055,20.0,2.0,2012.0
857005401,AI,Meppel,,18.2685,-63.1163,11.295,19.0,2.0,2012.0
857005385,AI,Wreck Of The Mv Sarah,,18.2579,-63.197,9.295,17.0,2.0,2012.0
857005250,VN,Madonna Rock,,12.1714,109.313,8.1,15.0,8.0,2011.0
857005156,VN,Madonna Rock,,12.1714,109.313,9.3,11.0,8.0,2011.0
857005142,EG,Ras Um Sid,,27.8472,34.3139,12.8,20.0,11.0,2011.0
857005117,EG,Shark Reef And Yolanda Reef,,27.7252,34.2585,13.1,20.0,11.0,2011.0
857005108,FJ,Tequila Sunrise,,-17.2525,178.218,10.67,15.0,9.0,2010.0
857005060,KW,Maradim Island,,28.6813,48.6513,5.0,23.0,8.0,2002.0
857004922,FJ,Simple Green,,-18.3698,178.107,7.47,7.0,9.0,2010.0
857004911,PH,Balicasag Island Southwest Wall,,9.5099,123.674,13.5,5.0,9.0,2011.0
857004883,EG,Sandy Island,,26.8167,33.9833,8.5,28.0,6.0,2012.0
857004842,EG,Tobiea El Sogayaar,,26.7763,33.9368,9.25,27.0,6.0,2012.0
857004796,FJ,Bettle Reef,,-18.3912,178.091,9.6,8.0,9.0,2010.0
857004771,FJ,Nemo,,-18.3754,178.094,8.99,7.0,9.0,2010.0
857004430,EG,Gordon Reef,,27.9845,34.4532,15.0,14.0,10.0,2008.0
857004397,MV,Manta Point,,3.20278,73.2207,12.0,11.0,4.0,2007.0
857003752,BM,Lartington,,32.3214,-64.7574,4.725,26.0,6.0,2006.0
857003623,US,Schurz,,34.7229,-76.726,16.9,9.0,6.0,2012.0
857003613,US,W.E. Hutton,,34.499,-76.898,17.1,8.0,6.0,2012.0
857003566,US,W.E. Hutton,,34.499,-76.898,18.595,8.0,6.0,2012.0
857003547,CO,Punta Venado,,12.4989,-81.7244,9.0,5.0,12.0,2011.0
857003486,PH,Tongo Point,,9.95566,123.401,8.25,18.0,6.0,2012.0
857003451,AW,Harbour Reef,,12.4655,-70.0609,8.38,28.0,6.0,2012.0
857003449,DO,Viva Shallow,,18.3424,-68.8361,4.75,29.0,6.0,2012.0
857003442,EG,Makadi Bay Reef,,26.9667,33.9218,7.5,8.0,8.0,2009.0
857003416,EG,Hilton House Reef,,28.479,34.4962,5.8,17.0,2.0,2004.0
857003408,EG,Hilton House Reef,,28.479,34.4962,4.25,17.0,2.0,2004.0
857003398,EG,Marsa Shona Sogayar,,25.4176,34.6952,6.55,8.0,4.0,2006.0
857003380,EG,Gota Abu Ramada,,27.1399,33.9535,15.0,1.0,12.0,2011.0
857003334,PH,Olympia Maru,,12.0772,120.188,11.5,23.0,6.0,2012.0
857003300,MV,Anemone Thila,,5.3747,73.5123,11.0,4.0,4.0,2012.0
857003234,BS,Mystere Wreck,,23.6193,-75.9695,9.905,21.0,6.0,2012.0
857003222,EG,Tobia Kebir,,26.8102,33.9933,15.0,2.0,12.0,2011.0
857003218,DO,St. George Wreck,,18.3727,-68.9549,21.75,27.0,6.0,2012.0
857003158,EG,Erg Abu Ramada,,27.1631,33.9841,3.0,26.0,11.0,2011.0
857003134,EG,Three Pools,,28.4374,34.4587,12.0,18.0,8.0,2004.0
857003125,EG,The Islands,,28.4773,34.5127,8.0,17.0,8.0,2004.0
857003106,DO,Viva Shallow,,18.3424,-68.8361,4.6,25.0,6.0,2012.0
857003086,EG,Just Outside Ras Mohammed,,30.7749,31.0125,7.5,30.0,8.0,2011.0
857003080,DO,Acuario,,18.2302,-68.7863,6.2,21.0,6.0,2012.0
857003065,DO,St. George Wreck,,18.3727,-68.9549,19.1,18.0,6.0,2012.0
857003038,DO,The Aquarium,,18.3676,-69.0307,5.75,19.0,6.0,2012.0
857003035,EG,Ras Mohammed National Park,,27.6431,34.2823,12.0,27.0,8.0,2011.0
857003009,DO,The Wall,,18.35,-68.983,17.15,19.0,6.0,2012.0
857002941,KE,Coral Garden,,-4.01999,39.755,3.0,3.0,1.0,2012.0
857002912,EG,Rick's Reef,,28.5574,34.5238,7.6,7.0,6.0,2012.0
857002884,AU,Bell Park,,-32.2739,115.731,7.0,16.0,6.0,2012.0
857002880,HN,Big Bite,,16.3833,-86.4,5.03,10.0,6.0,2012.0
857002865,MX,Gina's Reef,,21.159,-86.8459,7.05,9.0,6.0,2012.0
857002863,EG,Ras Dudi Reef,,26.5136,34.0731,8.0,7.0,1.0,2011.0
857002846,GP,Tico,,15.8772,-61.3439,9.5,16.0,6.0,2012.0
857002831,MX,Cueva Del Pargo,,20.6285,-87.0798,5.5,26.0,1.0,2011.0
857002828,MX,Pared Verde,,20.7174,-86.9085,13.45,26.0,1.0,2011.0
857002816,GP,Grande Ancre,,15.8809,-61.3367,10.0,15.0,6.0,2012.0
857002805,EG,Ras Dudi Reef,,26.5136,34.0731,6.0,7.0,1.0,2011.0
857002782,MX,Gina's Reef,,21.159,-86.8459,6.0,9.0,6.0,2012.0
857002595,AI,Wreck Of The Mv Catheley H.,,18.2085,-63.0959,8.75,27.0,5.0,2012.0
857002566,AI,The Steps At Little Scrub,,18.2965,-62.9554,13.2,22.0,5.0,2012.0
857002562,AI,The Steps At Little Scrub,,18.2965,-62.9554,11.0,22.0,5.0,2012.0
857002559,EG,El Famous,,27.1856,33.8106,8.5,2.0,8.0,2003.0
857002553,AI,Shoal Bay Central,,18.2628,-63.0279,9.95,19.0,5.0,2012.0
857002550,EG,Turtle Bay,,27.8622,34.3203,5.5,2.0,8.0,2003.0
857002364,ID,Pasir Putih,,-0.87095,134.109,11.0,26.0,12.0,2011.0
857002161,US,Wreck Of The Queen Of Nassau,,24.9243,-80.6278,34.35,26.0,5.0,2011.0
857002146,EG,Lighthouse,,28.4991,34.5197,5.65,13.0,12.0,2011.0
857001065,EG,Hilton Long Beach House Reef,,27.0883,33.8633,4.5,31.0,10.0,2011.0
857001000,CU,Phillips Dive Park,,19.8984,-75.1651,4.8,9.0,2.0,2012.0
857000982,CU,Phillips Dive Park,,19.8984,-75.1651,6.095,4.0,2.0,2012.0
857000673,DO,The Aquarium,,18.3676,-69.0307,5.5,31.0,8.0,2009.0
857000392,EG,Hilton Long Beach House Reef,,27.0883,33.8633,3.9,2.0,11.0,2011.0
857000352,KY,Orange Canyon,,19.3697,-81.4192,17.525,7.0,11.0,2011.0
857000344,EG,Beach Albatros House Reef,,27.1219,33.8322,5.75,29.0,10.0,2011.0
811778072,US,"Gulf of Mexico, N of St. Petersburg, hard ground with sponges",,28.45916,-84.27177,,13.0,3.0,2011.0
797374421,AU,,2.0,-22.08333,114.25,,,,
797374417,AU,,1.0,-22.08333,114.25,,,,
797374402,AU,,1.0,-20.55,116.53333,,,,
797374395,AU,,,-22.08333,114.25,,,,
797373917,AU,,,-25.35,113.73333,,,,
797373910,AU,,,-25.35,113.73333,,,,
797362750,CX,,1.0,-10.5,105.66667,,,,
797361820,AU,,1.0,-25.35,113.73333,,,,
797350518,AU,,,-21.63333,115.11667,,,,
797346736,LK,,,8.0,80.0,,,,
797343574,AU,,1.0,-28.88333,114.03333,,,,
797300521,AU,,1.0,-20.525,116.672778,0.15,,,
797250392,PG,,1.0,-5.166667,145.85,0.65,,,
797236362,PG,,,-4.66667,146.0,,,,
797234327,CC,,1.0,-12.18333,96.86667,0.8,,,
797217297,AU,,1.0,-12.2,122.966667,16.5,,,
797212904,AU,,,-21.63333,115.11667,,,,
797170714,AU,,1.0,-28.48333,113.76667,31.5,,,
797150991,AU,,1.0,-26.16667,113.18333,2.0,,,
797140741,AU,,1.0,-19.11667,119.41667,,,,
797139377,AU,,1.0,-20.083333,117.083333,22.0,,,
797127278,AU,,1.0,-28.48333,113.68333,7.5,,,
797103728,AU,,1.0,-22.08333,114.25,6.0,,,
797103378,AU,,1.0,-23.1,113.75,,,,
797099992,AU,,,-31.01667,115.33333,,,,
797099187,AU,,,-29.95,114.96667,,,,
797096652,AU,,,-24.88333,113.66667,26.0,,,
797093860,AU,,,-24.88333,113.66667,29.8,,,
797084189,AU,,,-20.46667,116.61667,,,,
797066051,AU,,1.0,-28.33333,113.58333,,,,
797059483,AU,,2.0,-25.35,113.73333,,,,
797050775,AU,,,-16.71667,146.08333,,,,
735858664,TW,off the coast of Hsinchu,1.0,24.83,120.39,65.0,,,
666746508,TW,Nan Fang Ao Fish Market,1.0,24.5842,121.8708,,,,2009.0
666745391,PW,northern tip of Tobi Island on E side,1.0,3.0117,131.1319,24.0,,,2008.0
666743831,PH,"west side of Siquijor Island, reef flat and drop-off",1.0,9.0333,123.0833,15.0,,,1995.0
666725295,PW,"Tabletop Reef, northern tip of long reef to W of Kayangel Isalnd",1.0,7.99239,134.53533,8.0,,,2006.0
666725294,PW,southern end of Helen Reef near SE corner,1.0,2.7989,131.7556,26.5,,,2008.0
666725289,PH,Dumaguete,1.0,9.307,123.3074,,,,1931.0
666725287,PH,Jolo,1.0,5.925203,121.153284,,,,1929.0
656977501,FJ,"Great Sea reef, SW of Kia Island",,-16.285667,179.038,11.0,1.0,4.0,2002.0
656975354,US,East of Raleigh Bay,,34.855556,-75.556111,59.5,13.0,3.0,2006.0
624266790,US,North side of bridge between Missouri and Little Duck Keys,,24.678,-81.234,,28.0,3.0,2012.0
624266415,VI,"0.25 mi SSW of Butler Bay, West St. Croix 63",,17.747333,-64.893833,,22.0,1.0,2012.0
624266407,VI,Molasses Pier at boat ramp off St. Croix 75,,17.728194,-64.7635,,23.0,1.0,2012.0
624265158,US,Little Duck Key & Missouri Key channel around bridge piling,,24.495833,-81.235,,6.0,7.0,2011.0
624265157,US,Little Duck Key & Missouri Key channel around bridge piling,,24.495833,-81.235,,25.0,5.0,2011.0
624260370,BS,Little Bahama Bank,,26.798849,-77.888775,,,,2008.0
624260369,BS,"Little Bahama Bank ""Mangrove"" Cay",,26.798849,-77.888775,,8.0,3.0,2008.0
624260368,BS,Little Bahama Bank,,26.798849,-77.888775,,1.0,5.0,2008.0
624260367,BS,"Little Bahama Bank ""Galleon""",,26.798849,-77.888775,,8.0,7.0,2007.0
624260366,BS,"Little Bahama Bank, Barge wreck",,26.798849,-77.888775,,8.0,7.0,2007.0
624256191,BS,"Banana Beach, Eleuthera",,25.239995,-76.274621,,31.0,7.0,2008.0
624219356,BS,"Governor's Harbour, North Shore Drive, 1.25 mi E Queens Hwy, along ledge, eastern shore of Eleuthera",,25.200399,-76.225722,,26.0,11.0,2007.0
624212533,BS,Approximately 8 kilometers west of Walkers Cay,,27.22,-78.498333,,3.0,8.0,2006.0
624212231,BS,"Great Exuma, Off Emerald Bay Marina",,23.63449,-75.914339,,4.0,4.0,2006.0
624095048,MH,"Parry Island, lagoon swimming area, coral head.",,11.400421,162.367283,0.0,,,
624069988,ID,Coral reef at Telak Slawi.,,-8.58333,119.504807,0.0,,1.0,1970.0
624062630,IL,"Red Sea coral reef at Elat, Gulf of Aqaba.",,29.549861,34.954661,,13.0,7.0,1959.0
583671136,ID,,1.0,-0.419,130.702,31.0,17.0,11.0,2007.0
583462806,MG,fort-dauphin,1.0,-25.183,47.0,,,,
583462803,MU,,1.0,-20.0,59.0,,,,1850.0
583462801,MU,,1.0,-20.333,57.583,,,,
583462800,MU,,1.0,-20.333,57.583,,,,
583462795,ID,kupang(rade de),1.0,-10.167,125.633,,,,1820.0
583462790,PH,,1.0,5.5,121.5,,,,
583462786,SC,,1.0,-5.0,55.0,,,,
583462784,RE,st.paul,1.0,-20.967,54.583,80.0,,5.0,1974.0
583462781,IN,kerala,1.0,9.933,76.233,,,2.0,1980.0
583462779,RE,ste.suzanne,1.0,-20.867,55.6,45.0,2.0,9.0,1982.0
583462775,ID,kupang(rade de),1.0,-10.167,125.633,,,,1820.0
583462772,RE,,1.0,-20.75,53.25,,,,
583462767,RE,,1.0,-20.75,53.25,,,,1866.0
583462765,ID,batavia,1.0,-6.0,106.75,,,,
583462763,IN,pondichery,1.0,11.983,79.833,,,,
583462760,MU,,1.0,-20.333,57.583,,,,
583462757,ID,,1.0,-3.833,128.167,,,,
583462752,ID,waigeoe(i.),1.0,-7.5,132.5,,,,
583462747,ID,,1.0,1.0,97.833,,,,1857.0
583462743,RE,,1.0,-20.75,53.25,,,,1866.0
583462739,RE,,1.0,-20.75,53.25,,,,
583462734,ID,,2.0,-3.833,128.167,,,,
583462729,CN,swatow,1.0,23.383,116.65,,,,
583462725,PH,,1.0,15.0,122.5,,,,
583462723,PH,,1.0,15.0,122.5,,,,
583462721,ZA,east-london,1.0,-33.0,27.9,,,,
583462715,MG,tulear,1.0,-23.333,43.5,,,,
583462713,MG,tulear,1.0,-23.333,43.5,,,,
583462708,EG,,1.0,28.867,32.75,28.0,8.0,12.0,1928.0
583462706,MG,tulear,4.0,-13.5,48.0,,,,1964.0
583462705,IN,pondichery,1.0,11.983,79.833,,,,
583462703,RE,,1.0,-20.75,53.25,,,,
583462701,RE,st.paul,1.0,-20.967,54.583,80.0,,5.0,1974.0
583462700,IL,eilat,1.0,29.5,34.95,,,4.0,1977.0
583462693,RE,,1.0,-20.75,53.25,,,,
583462690,ID,,1.0,-3.833,128.167,,,,
583462684,VN,poulo condore,1.0,8.215,107.775,,,,
583462682,MG,tulear,1.0,-23.333,43.517,,,,
583462680,MG,,1.0,-25.035,47.085,65.0,2.0,3.0,1973.0
583462671,VU,,1.0,-15.523,167.165,,,,2006.0
583462668,PF,$$$,2.0,-8.8,-140.05,45.0,26.0,8.0,1997.0
57220822,IN,Bay of Bengal,,15.0,90.0,,,,
5070198434,AU,,,-36.0,150.0,,28.0,6.0,2015.0
5070197975,AU,,1.0,-28.5,153.5,,12.0,11.0,2015.0
5070197732,AU,,1.0,-32.0,115.5,,13.0,4.0,2016.0
5070197461,AU,,1.0,-32.0,115.5,,11.0,3.0,2012.0
5070197457,AU,,,-31.0,115.0,,16.0,4.0,2016.0
5070197325,AU,,1.0,-33.5,115.5,,3.0,3.0,2013.0
5070197267,AU,,1.0,-33.5,115.5,,6.0,5.0,2014.0
5070196678,AU,,1.0,-34.0,151.5,,15.0,12.0,2013.0
5070196561,AU,,1.0,-33.5,115.5,,4.0,12.0,2014.0
5070196553,AU,,,-36.0,150.0,,28.0,6.0,2015.0
5070195253,AU,,1.0,-28.5,153.5,,17.0,11.0,2016.0
5070195203,AU,,1.0,-34.5,151.0,,24.0,2.0,2017.0
5070195194,AU,,,-32.0,115.5,,2.0,1.0,2014.0
5070195174,AU,,1.0,-34.0,115.0,,17.0,12.0,2015.0
5070195037,AU,,1.0,-34.0,151.5,,1.0,12.0,2013.0
5064132924,MY,,,4.595825,118.86434,,6.0,10.0,2023.0
5064127967,MX,,,20.698632,-86.997137,,9.0,2.0,2025.0
5064081282,ID,,,-8.518735,115.509996,,2.0,1.0,2025.0
5064078993,DM,,,15.29557,-61.38686,,27.0,1.0,2025.0
5064071890,MS,,,16.801697,-62.205399,,10.0,2.0,2025.0
5064048104,PA,,,9.441194,-79.779288,,10.0,2.0,2025.0
5064047582,BS,,,25.627245,-79.317205,,7.0,2.0,2025.0
5063979048,BS,,,25.757489,-79.302419,,6.0,2.0,2025.0
5063937840,BS,,,25.752215,-79.305935,,6.0,2.0,2025.0
5063935648,ID,,,-8.282118,115.601345,,27.0,7.0,2024.0
5063920583,MX,,,20.505642,-87.214585,,16.0,9.0,2016.0
5063908284,CX,,,-10.446154,105.560985,,16.0,5.0,2022.0
5063884769,US,,,26.783809,-80.040668,,26.0,12.0,2024.0
5063832320,GP,,,16.330861,-61.622983,,4.0,2.0,2025.0
5063791457,PH,,,13.778093,120.905594,,31.0,1.0,2025.0
5063720544,BS,,,25.086053,-77.321948,,26.0,1.0,2025.0
5063718657,AU,,,-28.108392,153.476822,,29.0,1.0,2025.0
5063709063,PH,,,13.769768,120.902297,,31.0,1.0,2025.0
5063691467,GP,,,16.411218,-61.559908,,18.0,9.0,2020.0
5063668831,BQ,,,12.136957,-68.27505,,31.0,1.0,2025.0
5063668637,MX,,,20.34014,-87.343124,,23.0,12.0,2024.0
5063641372,DO,,,17.923363,-71.687201,,28.0,1.0,2025.0
5063624550,DO,,,17.92332,-71.694386,,28.0,1.0,2025.0
5063590557,DO,,,17.897346,-71.701969,,28.0,1.0,2025.0
5063579203,BZ,,,17.918889,-87.949942,,30.0,1.0,2025.0
5063578186,PG,,,-4.697881,149.439815,,21.0,3.0,2024.0
5063576447,AU,,,-16.418907,145.998992,,24.0,7.0,2022.0
5063541265,MY,,,4.595825,118.86434,,16.0,12.0,2023.0
5063534445,US,,,26.783882,-80.040582,,25.0,12.0,2020.0
5063523377,AU,,,-27.200779,153.363961,,27.0,1.0,2025.0
5063518310,BS,,,25.084228,-77.320855,,26.0,1.0,2025.0
5063506655,AU,,,-29.927659,153.389267,,1.0,1.0,2025.0
5063505170,TC,,,21.789542,-72.227379,,28.0,1.0,2025.0
5063478717,MX,,,20.29703,-87.00389,,31.0,12.0,2024.0
5063468592,ID,,,-1.967369,130.487601,,11.0,1.0,2025.0
5063438306,ID,,,-0.555158,130.677552,,17.0,1.0,2025.0
5063398233,PG,,,-4.679789,149.5041,,23.0,3.0,2024.0
5063354944,AU,,,-27.955902,153.451923,,18.0,1.0,2025.0
5063321493,MQ,,,14.656646,-61.157351,,19.0,1.0,2025.0
5063309076,ID,,,-0.555158,130.677552,,17.0,1.0,2025.0
5063306230,ID,,,-0.555158,130.677552,,17.0,1.0,2025.0
5063305012,VI,,,18.233834,-64.854072,,19.0,1.0,2023.0
5063301155,ID,,,-1.980509,130.491304,,30.0,12.0,2024.0
5063295104,ID,,,-0.555002,130.679242,,18.0,1.0,2025.0
5063288044,PA,,,9.578547,-79.667307,,21.0,1.0,2025.0
5063279581,MX,,,20.409267,-87.017603,,12.0,1.0,2025.0
5063264162,BS,,,25.074163,-77.428342,,19.0,1.0,2025.0
5063263531,BS,,,23.964308,-74.487154,,4.0,1.0,2025.0
5063263517,BS,,,24.123118,-74.458677,,3.0,1.0,2025.0
5063258762,CW,,,12.187751,-69.030368,,21.0,1.0,2025.0
5063250594,AU,,,-19.3044,147.62,,20.0,1.0,2025.0
5063242454,US,,,26.763571,-80.050424,,20.0,1.0,2025.0
5063226014,AU,,,-19.3047,147.6241,,20.0,1.0,2025.0
5063211511,AU,,,-27.955902,153.451923,,18.0,1.0,2025.0
5063208368,FJ,,,-17.620849,177.21925,,12.0,6.0,2014.0
5063201752,JM,,,18.51515,-77.765877,,19.0,1.0,2025.0
5063201125,GU,,,13.388279,144.651779,,20.0,1.0,2025.0
5063199514,MQ,,,14.780981,-61.213573,,18.0,1.0,2025.0
5063177172,ID,,,-0.555263,130.679022,,7.0,1.0,2025.0
5063163784,JM,,,18.515015,-77.765671,,19.0,1.0,2025.0
5063152877,ID,,,-0.541911,130.268735,,23.0,12.0,2024.0
5063151893,MX,,,20.328965,-87.024901,,19.0,1.0,2025.0
5063146855,CU,,,21.115975,-75.90318,,19.0,1.0,2025.0
5063136000,BQ,,,12.20256,-68.313596,,2.0,1.0,2025.0
5063127872,AU,,,-14.913661,145.707458,,28.0,6.0,2024.0
5063118827,FJ,,,-18.32978,178.107719,,8.0,6.0,2014.0
5063110504,BQ,,,12.156792,-68.304117,,25.0,4.0,2024.0
5063088235,MQ,,,14.781108,-61.213325,,18.0,1.0,2025.0
5063081253,AU,,,-27.955902,153.451923,,18.0,1.0,2025.0
5063067253,PH,,,9.516107,123.683301,,21.0,12.0,2013.0
5063018161,HN,,,16.073188,-86.947797,,16.0,1.0,2025.0
5062950639,ID,,,-2.001457,130.636272,,26.0,12.0,2024.0
5062939353,ID,,,-2.131987,130.89224,,24.0,12.0,2024.0
5062642140,BS,,,25.044331,-77.350361,,9.0,10.0,2014.0
5062615201,BS,,,25.044331,-77.350361,,9.0,10.0,2014.0
5060653246,JP,"Saneku Beach, Saneku, Setouchi, Oshima-gun, Kakeroma-jima island, Amami Islands, Kagoshima, Japan",,28.188333,129.183056,,23.0,11.0,2022.0
5060652768,JP,"off Amami?oshima island, Amami Islands, Kagoshima, Japan",,28.466667,129.466667,,10.0,6.0,2022.0
5060649960,JP,"off Amami?oshima island, Amami Islands, Kagoshima, Japan",,28.466667,129.466667,,1.0,7.0,2022.0
5060648026,JP,"Seisui Beach, Setouchi, Oshima-gun, Amami-oshima island, Amami Islands, Kagoshima, Japan",,28.133611,129.328889,,5.0,11.0,2022.0
5053519769,TW,Inner-reef of Dongsha Atoll 1,,20.70285,116.8025,5.0,1.0,4.0,2005.0
5053514090,TW,Inner-reef of Dongsha Atoll 2,,20.7352,116.7914,4.0,2.0,4.0,2005.0
5053513787,TW,Stronghold 6,,20.69195,116.7242,1.0,31.0,3.0,2005.0
5037265709,ID,,,-0.555169,130.677702,,5.0,1.0,2025.0
5037262163,BS,,,25.421792,-79.206078,,30.0,11.0,2024.0
5037253137,AU,,,-31.499897,159.067075,,9.0,1.0,2025.0
5037229206,PH,,,9.4299,123.39279,,9.0,12.0,2024.0
5037227117,ID,,,-0.555147,130.677584,,5.0,1.0,2025.0
5037222920,PA,,,9.587705,-78.675963,,7.0,1.0,2025.0
5037165116,AU,,,-30.894224,153.040134,,3.0,1.0,2025.0
5037146674,PH,,,12.584995,122.240312,,13.0,10.0,2024.0
5037142719,KY,,,19.293585,-81.096856,,8.0,1.0,2025.0
5037108474,AU,,,-28.644487,153.718476,,11.0,1.0,2025.0
5037078357,BZ,,,16.900443,-88.061533,,13.0,1.0,2025.0
5037077541,BQ,,,12.207174,-68.322665,,1.0,1.0,2025.0
5037064842,US,,,26.714364,-80.006321,,12.0,1.0,2025.0
5037055070,PG,,,-4.697837,149.439776,,21.0,3.0,2024.0
5037055027,US,,,27.637525,-96.57135,,15.0,3.0,2024.0
5036953373,ID,,,-2.166012,130.581293,,25.0,12.0,2024.0
5036899534,HN,,,16.328476,-86.57224,,8.0,1.0,2025.0
5036878995,BQ,,,12.163825,-68.287761,,8.0,1.0,2025.0
5036812026,JM,,,18.468837,-77.41503,,9.0,1.0,2025.0
5036733542,CW,,,12.16957,-68.99002,,10.0,11.0,2024.0
5036730094,ID,,,-2.118641,130.88862,,24.0,12.0,2024.0
5036713625,KY,,,19.235137,-81.257198,,30.0,12.0,2024.0
5036713206,AU,,,-30.894224,153.040134,,4.0,1.0,2025.0
5036692276,ID,,,-0.557283,130.689521,,24.0,12.0,2024.0
5028615557,FJ,Umgebung Crusoe´s Retreat,,-18.250523,177.830521,,2.0,10.0,2012.0
5027792363,FJ,"Taveuni, Fiji, Küstenregion Nord",,-16.692373,-179.887894,,14.0,11.0,2002.0
5027756588,MV,Nalaguraidhoo (Sun Island),,3.482707,72.800392,,26.0,7.0,2002.0
5027141384,MV,Nalaguraidhoo (Sun Island),,3.482707,72.800392,,28.0,7.0,2002.0
5026978172,MV,Nalaguraidhoo (Sun Island),,3.482707,72.800392,,27.0,7.0,2002.0
5024077345,LK,Riffe vor Nilaveli,,8.691506,81.228447,,4.0,10.0,2013.0
5022288998,AU,"Ningaloo Reef bei Coral Bay, Western Australia",,-23.12952,113.746819,,7.0,12.0,1992.0
5021048904,FJ,"Fiji, Kadavu Island, Südostküste",,-19.058399,178.183609,,6.0,11.0,2002.0
5018716567,EG,UTM25_36R_0725_2675,,24.207298,35.43119,,8.0,1.0,2020.0
5017605783,MY,"Sipadan Island, Sabah, Borneo",,4.116667,118.616669,,9.0,7.0,2009.0
5016515260,MV,Nalaguraidhoo (Sun Island),,3.482707,72.800392,,31.0,7.0,2002.0
5015577640,DE,Wilhelma Zoologisch- Botanischer Garten,,48.805656,9.203625,,1.0,1.0,2013.0
5014551934,ID,"Mansuar Island, Raja Ampat, Indonesien",,-0.575445,130.613617,,21.0,9.0,2011.0
5013664076,FJ,"Fiji, Kadavu Island, Südostküste",,-19.058399,178.183609,,5.0,11.0,2002.0
5009418384,AU,(probably) Exmouth Gulf,,-22.0,114.0,,,,
5009405864,AU,NE of Monte Bello Islands (Pilbara Fish Trawl Fisheries Area,,-20.1075,116.1935,59.5,3.0,11.0,2017.0
5009392677,AU,NE of Bundaberg,,-24.33533,153.028,48.0,14.0,4.0,2004.0
5009365115,AU,N of Dampier Archipelago (Pilbara Fish Trawl Fisheries Area,,-20.0365,116.37533,57.5,30.0,10.0,2017.0
5009310846,AU,N of Dampier Archipelago (Pilbara Fish Trawl Fisheries Area,,-19.9195,116.69217,63.0,22.0,10.0,2017.0
5009310798,AU,NW of Port Hedland,,-19.89817,118.2145,36.5,14.0,10.0,2017.0
5009274083,AU,"N of Cape Lambert, Dampier Commonwealth Marine Reserve",,-20.338,117.3615,32.5,20.0,10.0,2017.0
5009229109,AU,"N of Cape Lambert, Dampier Commonwealth Marine Reserve",,-20.338,117.3615,32.5,20.0,10.0,2017.0
5009049403,AU,NW of Dampier Archipelago (Pilbara Fish Trawl Fisheries Area,,-19.77517,116.0405,81.0,31.0,10.0,2017.0
5009049365,AU,N of Dampier Archipelago (Pilbara Fish Trawl Fisheries Area,,-19.79283,116.55467,64.0,23.0,10.0,2017.0
5009025839,AU,N of Legendre Island (Pilbara Fish Trawl Fisheries Area 2),,-19.4905,116.8105,67.5,28.0,10.0,2017.0
5008969320,AU,NE of Monte Bello Is.,,-20.28333,116.06667,51.5,31.0,5.0,1980.0
5008452984,CX,,,-10.429229,105.668061,,28.0,6.0,2024.0
5008435014,DO,,,19.302949,-69.171841,,3.0,1.0,2025.0
5008428368,MQ,,,14.429075,-60.886431,,19.0,12.0,2024.0
5008383685,ID,,,2.154243,118.509224,,23.0,12.0,2024.0
5008380874,MQ,,,14.75916,-61.191463,,1.0,3.0,2023.0
5008360220,SB,,,-9.073061,159.298749,,10.0,12.0,2024.0
5008292907,GD,,,12.085758,-61.763122,,9.0,5.0,2023.0
5008288553,KY,,,19.386208,-81.298149,,22.0,12.0,2024.0
5008259467,KY,,,19.386779,-81.247495,,18.0,12.0,2024.0
5008231950,KY,,,19.238481,-81.39438,,17.0,12.0,2024.0
5008231858,AG,,,17.004734,-61.760051,,13.0,12.0,2024.0
5008179616,AU,,,-20.305256,118.606074,,7.0,10.0,2024.0
5008179427,ID,,,1.600335,124.766507,,16.0,11.0,2023.0
5008172778,HN,,,16.065869,-86.947135,,25.0,6.0,2024.0
500815881,AU,Bat Island | Purdy Arch.,,-32.27,133.25,,18.0,9.0,1945.0
5008158780,JM,,,18.434224,-77.167557,,7.0,1.0,2025.0
500814053,AU,Cooktown | Cooktown,,-15.47,145.25,,,,
5008095611,MX,,,20.629559,-87.073885,,5.0,2.0,2015.0
5008064049,SB,,,-9.058279,159.198907,,15.0,12.0,2024.0
5008046522,TW,,,21.94263,120.752766,,4.0,11.0,2023.0
5008022815,PH,,,12.164691,120.157627,,2.0,12.0,2024.0
5007957902,US,,,26.78274,-80.043066,,28.0,1.0,2024.0
5007936253,TW,,,21.931236,120.745092,,20.0,11.0,2021.0
5007905479,BZ,,,17.922588,-87.95868,,18.0,12.0,2024.0
5007861666,BQ,,,12.163344,-68.286741,,5.0,1.0,2025.0
5007832046,AU,,,-30.205483,153.26693,,27.0,10.0,2024.0
5007813151,KY,,,19.358055,-81.275,,4.0,1.0,2025.0
5007812903,AU,,,-26.615872,153.169903,,30.0,12.0,2024.0
5007795504,ID,,,1.459833,125.239708,,9.0,11.0,2024.0
5007781371,PA,,,9.342848,-82.240923,,13.0,10.0,2024.0
5007738148,BS,,,24.123081,-74.458288,,3.0,1.0,2025.0
5007720258,PH,,,11.449514,124.017668,,11.0,11.0,2024.0
5007681867,ID,,,-0.573855,130.620772,,4.0,1.0,2025.0
5007679924,TW,,,20.697749,116.727675,,17.0,2.0,2023.0
5007672328,MY,,,4.237991,118.649629,,24.0,12.0,2024.0
5007665133,GP,,,15.948477,-61.709257,,22.0,2.0,2020.0
5007662360,ID,,,-0.458229,127.702072,,27.0,12.0,2024.0
5007657144,MY,,,4.249857,118.630903,,22.0,12.0,2024.0
5007655968,MY,,,4.595825,118.86434,,18.0,6.0,2024.0
5007640699,MY,,,4.595825,118.86434,,14.0,7.0,2024.0
5007628848,MY,,,4.595825,118.86434,,3.0,8.0,2024.0
5007599498,PH,,,9.434134,123.386279,,25.0,7.0,2024.0
5007541604,KY,,,19.324958,-81.555897,,26.0,12.0,2024.0
5007525712,ID,,,1.481595,125.247116,,22.0,12.0,2024.0
5007508618,MY,,,4.245797,118.63079,,21.0,12.0,2024.0
5007419786,MY,,,4.250073,118.630754,,22.0,12.0,2024.0
5007374238,MY,,,4.595825,118.86434,,12.0,7.0,2024.0
5007354275,ID,,,-0.559905,130.51697,,14.0,12.0,2024.0
5007286817,AU,,,-27.1634,153.36855,,10.0,4.0,2023.0
5007284762,PH,,,13.709256,120.8676,,28.0,11.0,2024.0
5007275894,JP,,,24.854069,125.249698,,11.0,12.0,2019.0
5007258164,DO,,,19.301858,-69.172919,,3.0,1.0,2025.0
5007249018,ID,,,-5.366041,123.478452,,21.0,2.0,2014.0
5007226313,PA,,,9.32325,-82.226155,,13.0,10.0,2024.0
5007178152,MY,,,4.595825,118.86434,,15.0,8.0,2024.0
5007135209,BQ,,,12.163109,-68.286266,,5.0,1.0,2025.0
5007130575,CW,,,12.26656,-69.128153,,10.0,2.0,2024.0
5007119439,CR,,,9.737642,-82.829447,,29.0,9.0,2022.0
5007060881,MY,,,4.114958,118.628883,,24.0,12.0,2024.0
5006966690,VI,,,17.747301,-64.702729,,11.0,3.0,2023.0
5006962051,MQ,,,14.75916,-61.191463,,27.0,2.0,2023.0
5006954304,BQ,,,12.20189,-68.262382,,19.0,4.0,2022.0
5006938471,ID,,,-3.914236,134.109025,,15.0,11.0,2024.0
5006922349,SB,,,-8.945995,160.018514,,17.0,12.0,2024.0
5006877686,HN,,,16.283046,-86.598804,,30.0,12.0,2024.0
5006789728,TW,,,21.943073,120.753363,,20.0,10.0,2023.0
5006763454,US,,,26.262177,-80.004838,,6.0,12.0,2024.0
5006762908,ID,,,1.459322,124.766381,,5.0,11.0,2024.0
5006702574,ID,,,1.455367,125.227019,,10.0,11.0,2024.0
5006697533,MQ,,,14.75916,-61.191463,,26.0,2.0,2023.0
4994939285,SC,Long Island,2.0,-4.616667,55.5,,,,
4994625758,WS,,,-14.010924,-171.787742,,8.0,10.0,2024.0
4994588420,TW,,,21.982863,120.711308,,2.0,12.0,2024.0
4994373717,BS,,,24.898386,-77.931494,,19.0,5.0,2024.0
4994315620,MX,,,19.791385,-87.443024,,28.0,11.0,2024.0
4994305991,KY,,,19.283287,-81.187997,,7.0,12.0,2024.0
4994192936,ID,,,-0.473989,130.686931,,12.0,11.0,2024.0
4994178247,ID,,,1.457989,124.76188,,4.0,11.0,2024.0
4994156493,PR,,,18.192647,-65.594038,,3.0,12.0,2024.0
4994078199,MX,,,20.851413,-86.871949,,7.0,12.0,2024.0
4994062339,WS,,,-14.010924,-171.787742,,8.0,10.0,2024.0
4993974878,PR,,,18.479348,-66.273628,,3.0,3.0,2024.0
4993961061,ID,,,1.629056,124.760611,,5.0,3.0,2023.0
4993943956,PH,,,11.449777,124.019056,,29.0,11.0,2024.0
4993934530,CW,,,12.219356,-69.08979,,26.0,11.0,2024.0
4993778946,BZ,,,17.168119,-87.897757,,30.0,11.0,2024.0
4993765316,US,,,26.782931,-80.040631,,26.0,11.0,2024.0
4987846579,ID,,,-8.18762,115.488863,,3.0,11.0,2024.0
4987799760,BS,,,25.068979,-77.335243,,24.0,11.0,2024.0
4987673804,US,,,26.336766,-80.073222,,15.0,9.0,2023.0
4987661100,TL,,,-8.476952,125.911668,,16.0,10.0,2024.0
4987511711,VN,,,12.179286,109.269864,,7.0,8.0,2024.0
4987394755,MP,,,14.137288,145.150574,,4.0,4.0,2023.0
4987385220,CR,,,9.739579,-82.81744,,29.0,4.0,2023.0
4982367923,ID,,,-8.604376,119.586181,,5.0,12.0,2018.0
4982312466,US,,,25.731332,-80.165306,,15.0,11.0,2024.0
4982285649,FJ,,,-16.737718,179.955165,,3.0,11.0,2024.0
4982185946,WF,,,-14.296836,-178.158108,,13.0,11.0,2024.0
4982164746,ID,,,-4.50783,129.94727,,10.0,10.0,2024.0
4982160476,ID,,,-3.63131,128.65603,,9.0,10.0,2024.0
4982108086,KY,,,19.3133,-81.2546,,15.0,12.0,2017.0
4982059867,HN,,,16.287131,-86.602329,,12.0,8.0,2024.0
4982043847,PW,,,7.286497,134.402956,,28.0,10.0,2024.0
4981990901,PH,,,10.033069,125.167721,,21.0,3.0,2024.0
4981926435,ID,,,-8.34661,124.327723,,7.0,10.0,2024.0
4980646791,NC,,,-22.30023,166.436006,,9.0,11.0,2024.0
4980641254,DM,,,15.244356,-61.373581,,10.0,11.0,2024.0
4980606370,PH,,,9.121359,123.213197,,7.0,11.0,2024.0
4980562421,KY,,,19.39286,-81.400296,,8.0,11.0,2024.0
4980430825,AU,,,-15.501781,145.787781,,30.0,10.0,2024.0
4980409420,GU,,,13.480737,144.750806,,3.0,11.0,2024.0
4980369478,WF,,,-14.311019,-178.067477,,4.0,11.0,2024.0
4980367844,CU,,,21.099089,-75.939998,,11.0,11.0,2024.0
4980365629,WF,,,-14.311019,-178.067477,,4.0,11.0,2024.0
4978576519,ID,,,1.487641,125.241103,,11.0,9.0,2024.0
4978533629,MX,,,20.854743,-86.861801,,26.0,10.0,2024.0
4978525666,ID,,,1.432622,125.197967,,10.0,9.0,2024.0
4978471811,BZ,,,16.106764,-88.267429,,10.0,2.0,2023.0
4978458935,NC,,,-22.494735,166.438193,,2.0,11.0,2024.0
4978435573,AU,,,-16.758723,145.969314,,3.0,11.0,2024.0
4978367408,ID,,,-8.602771,119.771524,,26.0,7.0,2024.0
4978365366,VU,,,-17.735391,168.32119,,9.0,12.0,2023.0
4978342504,PH,,,12.577836,122.248256,,23.0,3.0,2024.0
4978336978,ID,,,-0.396409,127.747247,,21.0,4.0,2024.0
4978317918,JP,,,28.111092,129.220254,,30.0,10.0,2024.0
4978257816,BZ,,,16.100223,-88.274572,,3.0,2.0,2023.0
4978245494,KY,,,19.689727,-80.036726,,12.0,12.0,2016.0
4978242152,ID,,,-8.275403,124.729877,,30.0,10.0,2024.0
4976657971,AU,,,-14.644413,145.452499,,20.0,10.0,2024.0
4976645310,ID,,,-4.577797,130.041111,,4.0,1.0,2023.0
4976635967,ID,,,1.471787,125.248315,,7.0,9.0,2024.0
4976610902,AU,,,-16.931167,145.98825,,25.0,10.0,2024.0
4976522489,JM,,,18.433916,-77.167272,,23.0,10.0,2024.0
4976395181,NC,,,-22.30023,166.436006,,25.0,10.0,2024.0
4976368621,ID,,,1.576991,124.803345,,23.0,10.0,2024.0
4976287744,JM,,,18.433916,-77.167272,,23.0,10.0,2024.0
4976199397,PH,,,9.893021,123.392341,,21.0,4.0,2024.0
4976193606,BQ,,,12.167783,-68.287867,,18.0,10.0,2024.0
4974330541,ID,,,-8.627869,119.562832,,21.0,7.0,2024.0
4974296969,US,,,26.78362,-80.045442,,12.0,6.0,2024.0
4974257059,ID,,,-8.627869,119.562832,,22.0,7.0,2024.0
4974212738,PR,,,17.9303,-66.2114,,22.0,10.0,2024.0
4974146411,PH,,,9.77965,124.599268,,22.0,6.0,2023.0
4974098460,ID,,,-5.60824,120.449343,,19.0,10.0,2024.0
4974091019,DO,,,18.427383,-68.970074,,12.0,6.0,2024.0
4974090904,TW,,,22.34048,120.363052,,12.0,10.0,2024.0
4974020298,AU,,,-31.51981,159.053879,,13.0,2.0,2024.0
4973802488,ID,,,1.626187,124.801581,,15.0,9.0,2024.0
4973797887,BQ,,,17.616462,-63.252128,,14.0,6.0,2024.0
4973790818,TW,,,22.08382,121.512898,,12.0,10.0,2024.0
4973777259,AU,,,-26.615736,153.169767,,12.0,10.0,2024.0
4958110704,US,"Gulf of Mexico, Alabama Deep Sea Fishing Rodeo",,28.6748,-87.82237,,16.0,7.0,2021.0
4955713729,CK,,,-18.053278,-163.201361,,,,
4955461567,WS,,,-13.826917,-171.74875,,,,
4954772098,ID,,,-1.032047,130.505218,,22.0,4.0,2019.0
4954746273,NC,,,-22.30023,166.436006,,12.0,10.0,2024.0
4954717979,AU,,,-20.30713,118.606458,,10.0,10.0,2024.0
4954710100,AU,,,-23.91392,152.385712,,12.0,10.0,2024.0
4954681022,NC,,,-22.30023,166.436006,,13.0,10.0,2024.0
4954603192,TW,,,22.35425,120.375183,,12.0,10.0,2024.0
4954478121,AU,,,-21.817276,114.192109,,23.0,9.0,2024.0
4954477487,KY,,,19.689727,-80.036726,,16.0,12.0,2016.0
4954445389,ID,,,-8.142113,114.654428,,2.0,10.0,2024.0
4954423659,CO,,,10.142841,-75.684824,,7.0,10.0,2024.0
4954405183,US,,,40.875154,-72.585013,,9.0,10.0,2024.0
4954394244,NC,,,-22.30023,166.436006,,14.0,10.0,2024.0
4954390771,ID,,,-1.032047,130.505218,,20.0,4.0,2019.0
4954361116,ID,,,1.43312,125.198975,,10.0,9.0,2024.0
4954322378,AU,,,-26.6133,153.135462,,5.0,10.0,2024.0
4953185886,BM,,,32.262062,-64.800583,,3.0,10.0,2024.0
4953142557,BQ,,,12.205977,-68.317062,,18.0,9.0,2023.0
4953134681,ID,,,-8.737309,115.484686,,12.0,9.0,2024.0
4953131250,MX,,,20.41045,-87.302984,,24.0,4.0,2024.0
4953124189,NC,,,-22.295998,166.436272,,20.0,9.0,2024.0
4953039509,KY,,,19.358034,-81.107802,,6.0,10.0,2024.0
4953022636,HN,,,16.459425,-85.831603,,3.0,10.0,2024.0
4953001127,BS,,,25.767188,-79.309779,,26.0,9.0,2024.0
4952894347,KY,,,19.391059,-81.40465,,3.0,10.0,2024.0
4952889427,BS,,,25.767926,-79.305735,,25.0,9.0,2024.0
4952869969,KY,,,19.3133,-81.2546,,13.0,12.0,2017.0
4952851267,BQ,,,12.205985,-68.316737,,18.0,9.0,2023.0
4952801568,US,,,27.909388,-93.600039,,28.0,9.0,2024.0
4952781631,KY,,,19.37545,-81.262602,,6.0,10.0,2024.0
4952753078,HK,,,22.329332,114.29216,,5.0,10.0,2024.0
4952701307,ID,,,1.459637,125.221388,,10.0,9.0,2024.0
4952687646,KY,,,19.391059,-81.40465,,3.0,10.0,2024.0
4952651996,NC,,,-22.300793,166.436547,,20.0,9.0,2024.0
4952590489,NC,,,-22.296044,166.436083,,6.0,10.0,2024.0
4952589657,US,,,28.166397,-94.295814,,29.0,9.0,2024.0
4952478656,HN,,,16.458965,-85.832113,,3.0,10.0,2024.0
4952437008,ID,,,-5.651182,120.433909,,2.0,10.0,2024.0
4952429097,MP,,,15.151395,145.699155,,29.0,9.0,2024.0
4952424839,PH,,,13.527261,120.980556,,27.0,9.0,2024.0
4952405131,PH,,,13.524398,120.975082,,27.0,9.0,2024.0
4952371518,MX,,,20.278266,-87.380927,,6.0,10.0,2024.0
4952370901,KY,,,19.37545,-81.262602,,6.0,10.0,2024.0
4952314304,ID,,,1.482366,125.23816,,5.0,9.0,2024.0
4952267737,MX,,,21.137484,-86.716067,,2.0,10.0,2024.0
4952253090,JM,,,18.442292,-77.181305,,1.0,10.0,2024.0
4952226516,ID,,,1.455539,125.240967,,7.0,9.0,2024.0
4952213953,KY,,,19.358034,-81.107802,,6.0,10.0,2024.0
4952209489,KY,,,19.391059,-81.40465,,3.0,10.0,2024.0
4952185987,US,,,27.876549,-93.815014,,28.0,9.0,2024.0
4952183079,PH,,,13.524398,120.975082,,27.0,9.0,2024.0
4950549153,CW,,,12.160574,-69.005453,,19.0,4.0,2016.0
4950379197,ID,,,1.486815,125.24136,,9.0,9.0,2024.0
4950325320,WS,,,-13.824136,-171.756525,,3.0,8.0,2024.0
4950322329,US,,,25.731368,-80.16543,,20.0,9.0,2024.0
4950191832,CW,,,12.160346,-69.005511,,19.0,4.0,2016.0
4950123722,AU,,,-16.933667,145.994346,,23.0,9.0,2024.0
4950102183,GU,,,13.465388,144.687897,,22.0,9.0,2024.0
4950009998,AU,,,-21.81695,114.191421,,23.0,9.0,2024.0
4949948764,JP,,,26.238142,127.315831,,10.0,9.0,2024.0
4949945868,ID,,,-8.269825,124.421018,,14.0,9.0,2024.0
4947086562,AU,Seven Reefs Anchorage,,-10.2875,143.70978,6.5,21.0,8.0,2021.0
4946709710,MY,,,4.602856,118.860937,,14.0,9.0,2024.0
4946673965,MP,,,15.161455,145.762066,,7.0,9.0,2024.0
4946544766,GU,,,13.465878,144.687917,,6.0,9.0,2024.0
4946417992,BS,,,27.052203,-79.160681,,25.0,5.0,2024.0
4946391473,CK,,,-21.259224,-159.815056,,12.0,6.0,2022.0
4946389602,AU,,,-17.662753,148.310991,,11.0,12.0,2004.0
4946343342,AU,,,-27.163113,153.367957,,6.0,6.0,2024.0
4946337403,VU,,,-15.524948,167.24389,,7.0,12.0,2022.0
4946320825,FJ,,,-18.475501,177.977515,,1.0,9.0,2024.0
4946280983,US,,,29.91395,-81.39769,,5.0,7.0,2021.0
4946255049,ID,,,1.613831,124.794451,,6.0,9.0,2024.0
4946247947,MP,,,15.184419,145.781203,,6.0,9.0,2024.0
4946163792,PH,,,11.449514,124.017668,,7.0,9.0,2024.0
4946146793,MX,,,20.323994,-87.028665,,13.0,9.0,2024.0
4946128896,US,,,24.682594,-81.228104,,8.0,9.0,2024.0
4946120750,ID,,,1.47847,125.235304,,9.0,9.0,2024.0
4945968645,ID,,,1.573722,124.804,,6.0,3.0,2023.0
4945918066,FJ,,,-18.353353,178.100115,,1.0,9.0,2024.0
4945885924,MY,,,4.596061,118.86907,,15.0,9.0,2024.0
4945817859,BS,,,24.392913,-76.633039,,22.0,3.0,2022.0
4945812346,FJ,,,-18.475501,177.977515,,1.0,9.0,2024.0
4945790875,KY,,,19.306135,-81.077205,,1.0,8.0,2024.0
4945748993,GU,,,13.470677,144.701187,,5.0,9.0,2024.0
4945653847,HN,,,16.357199,-86.421965,,11.0,8.0,2024.0
4945642096,GU,,,13.465751,144.687717,,7.0,8.0,2024.0
4945639656,MX,,,20.321837,-87.025305,,12.0,9.0,2024.0
4945613516,ID,,,-8.737166,115.886186,,6.0,9.0,2024.0
4945592612,ID,,,1.486638,125.241314,,9.0,9.0,2024.0
4945591906,ID,,,1.489232,125.257225,,6.0,9.0,2024.0
4945496820,MP,,,15.184419,145.781203,,31.0,8.0,2024.0
4937264485,US,,,40.864146,-72.472876,,2.0,9.0,2024.0
4937228277,AU,,,-26.640304,153.151705,,31.0,8.0,2024.0
4937179421,ID,,,1.505285,125.245421,,25.0,3.0,2018.0
4937179360,SB,,,-8.824398,158.984539,,13.0,4.0,2007.0
4937172754,PH,,,13.745142,120.887121,,19.0,2.0,2015.0
4937118767,ID,,,-8.738217,115.886842,,2.0,9.0,2024.0
4937083889,US,,,25.768361,-80.137958,,31.0,5.0,2023.0
4937034527,TW,,,22.660295,121.486288,,24.0,5.0,2024.0
4936993770,US,,,25.767103,-80.136894,,25.0,2.0,2023.0
4936945011,CU,,,23.116956,-82.438372,,31.0,8.0,2024.0
4936908051,TW,,,25.143718,121.814862,,24.0,8.0,2024.0
4936854212,SB,,,-9.379548,159.879696,,15.0,4.0,2007.0
4936808234,PA,,,9.349256,-82.159952,,25.0,8.0,2024.0
4936804201,AU,,,-26.615,153.169998,,30.0,8.0,2024.0
4936794810,US,,,40.845662,-72.502129,,1.0,8.0,2024.0
4936784131,FJ,,,-17.812458,178.713011,,2.0,8.0,2024.0
4936762514,MP,,,15.183579,145.781878,,17.0,8.0,2024.0
4936703516,SB,,,-9.379548,159.879696,,15.0,4.0,2007.0
4936661881,US,,,40.867291,-72.474666,,28.0,8.0,2024.0
4936657405,TW,,,25.113839,121.920424,,2.0,9.0,2024.0
4936595395,TW,,,23.628403,121.733591,,2.0,2.0,2024.0
4936594006,BM,,,32.275398,-64.886254,,31.0,8.0,2024.0
4936588031,VI,,,18.333996,-64.730985,,21.0,5.0,2024.0
4936581057,MX,,,19.791615,-87.443152,,26.0,8.0,2024.0
4936458565,TW,,,21.932159,120.745162,,2.0,8.0,2024.0
4936438593,AU,,,-26.615765,153.116056,,31.0,8.0,2024.0
4936430886,BS,,,24.829655,-76.328475,,29.0,4.0,2022.0
4936396252,PR,,,18.479388,-66.273634,,30.0,3.0,2024.0
4936378542,PH,,,9.516742,123.684159,,31.0,10.0,2017.0
4936251405,BS,,,24.832239,-77.88746,,2.0,5.0,2008.0
4936167946,GF,,,5.280449,-52.580997,,14.0,8.0,2024.0
4936118688,AU,,,-26.616871,153.157963,,31.0,8.0,2024.0
4936097915,AU,,,-26.67732,153.142192,,31.0,8.0,2024.0
4936093717,BS,,,24.832551,-77.88643,,27.0,4.0,2008.0
4936092016,US,,,40.868075,-72.469603,,1.0,9.0,2024.0
4936000572,MP,,,15.183579,145.781878,,17.0,8.0,2024.0
4935914165,VI,,,18.333996,-64.730985,,21.0,5.0,2024.0
4935888746,AU,,,-21.816914,114.191588,,25.0,1.0,2024.0
4935831490,US,,,26.772477,-80.043461,,26.0,8.0,2024.0
4935830499,MX,,,20.830092,-86.888753,,21.0,8.0,2024.0
4935820586,PH,,,9.13953,123.230278,,26.0,8.0,2024.0
4935786756,AU,,,-16.513343,149.33283,,11.0,9.0,2010.0
4935554789,MZ,Costa N da Ilha da Inhaca,6.0,-25.977692,32.947564,,21.0,9.0,1957.0
4926386496,CU,,,21.761964,-80.027722,,2.0,8.0,2024.0
4926327529,CW,,,12.057987,-68.829598,,4.0,7.0,2024.0
4926303591,TW,,,23.472865,121.508511,,14.0,8.0,2024.0
4926283633,PA,,,9.539897,-79.674958,,18.0,8.0,2024.0
4926275010,KY,,,19.364176,-81.402758,,13.0,8.0,2024.0
4926270236,PH,,,9.139902,123.229954,,8.0,4.0,2024.0
4926262406,ID,,,-8.464953,119.577319,,6.0,8.0,2024.0
4926259679,NC,,,-22.30023,166.436006,,16.0,8.0,2024.0
4926248547,JP,,,28.111792,129.34752,,19.0,7.0,2023.0
4926206526,KY,,,19.361487,-81.401739,,14.0,8.0,2024.0
4926162655,CU,,,22.04392,-80.956376,,5.0,8.0,2024.0
4926124825,US,,,24.606878,-81.934917,,19.0,8.0,2024.0
4926110107,GU,,,13.470974,144.701476,,16.0,8.0,2024.0
4926094557,KY,,,19.389481,-81.404638,,13.0,8.0,2024.0
4926091618,CW,,,12.075685,-68.849915,,4.0,7.0,2024.0
4926046466,ID,,,-8.315404,124.3665,,12.0,7.0,2024.0
4925964206,PA,,,9.539895,-79.67498,,18.0,8.0,2024.0
4925879571,CU,,,21.744351,-80.022649,,1.0,8.0,2024.0
4924106054,BQ,,,12.16743,-68.287311,,10.0,8.0,2024.0
4924088244,PH,,,9.784539,124.598756,,17.0,7.0,2024.0
4924072479,ID,,,-8.49925,119.758167,,4.0,4.0,2023.0
4924046599,FJ,,,-19.207706,-178.434848,,18.0,7.0,2024.0
4924043667,ID,,,-8.267536,124.299136,,11.0,7.0,2024.0
4923794460,ID,,,-2.544042,140.707733,,9.0,7.0,2022.0
4923790236,US,,,26.782366,-80.042108,,9.0,8.0,2024.0
4923752698,SB,,,-8.112968,156.908236,,13.0,9.0,2014.0
4923631648,HN,,,16.355634,-86.430859,,1.0,5.0,2024.0
4923609457,AU,,,-23.902867,152.39095,,7.0,8.0,2024.0
4923602844,US,,,26.782826,-80.042041,,9.0,8.0,2024.0
4922039609,AU,,,-16.456423,145.97401,,19.0,7.0,2024.0
4922030326,KY,,,19.382076,-81.416248,,19.0,6.0,2023.0
4921866437,FJ,,,-17.795473,177.144558,,29.0,7.0,2024.0
4921796901,TW,,,22.082104,121.517566,,27.0,7.0,2024.0
4921765811,ID,,,-8.096977,114.506678,,3.0,8.0,2024.0
4921719514,PH,,,13.523646,120.982038,,8.0,8.0,2011.0
4921679794,AU,,,-18.614433,147.068195,,6.0,8.0,2024.0
4921625854,US,,,30.249106,-88.077954,,26.0,7.0,2024.0
4921579262,US,,,33.9855,-77.321667,,17.0,6.0,2020.0
4921573462,FJ,,,-18.370132,178.132334,,12.0,1.0,2019.0
4921531180,US,,,34.0253,-76.648,,5.0,7.0,2021.0
4921501862,PH,,,13.526174,120.974269,,10.0,8.0,2011.0
4921479247,NC,,,-22.297778,166.436322,,5.0,8.0,2024.0
4921460802,PH,,,9.729087,124.571951,,16.0,7.0,2024.0
4921454991,PA,,,9.536182,-79.672876,,27.0,11.0,2022.0
4919745463,TW,,,25.113534,121.919944,,29.0,6.0,2024.0
4919725823,AU,,,-21.463818,115.022154,,22.0,7.0,2024.0
4919663130,AU,,,-16.931855,145.987716,,21.0,7.0,2024.0
4919645458,MP,,,15.256454,145.776986,,28.0,7.0,2024.0
4919603048,GP,,,15.982643,-61.305981,,11.0,7.0,2024.0
4919585518,MQ,,,14.529495,-61.088372,,21.0,4.0,2024.0
4919538691,MQ,,,14.528927,-61.088186,,22.0,4.0,2024.0
4919529781,KY,,,19.370305,-81.276414,,29.0,11.0,2022.0
4919467679,MX,,,20.334403,-87.027873,,22.0,7.0,2024.0
4919421676,GP,,,16.174262,-61.779824,,20.0,7.0,2024.0
4919354687,US,,,26.158914,-80.094408,,12.0,2.0,2016.0
4919350881,AU,,,-27.936656,153.426215,,27.0,7.0,2024.0
4919299234,MQ,,,14.528927,-61.088186,,22.0,4.0,2024.0
4919299223,MQ,,,14.528451,-61.087868,,19.0,4.0,2024.0
4919298957,MP,,,15.183557,145.781887,,29.0,7.0,2024.0
4919240335,US,,,40.842436,-72.499559,,28.0,7.0,2024.0
4919215112,WF,,,-14.311019,-178.067477,,21.0,7.0,2024.0
4919210612,GP,,,16.174262,-61.779824,,20.0,7.0,2024.0
4919158711,AU,,,-27.936955,153.426134,,27.0,7.0,2024.0
4919098467,AU,,,-27.936745,153.426274,,27.0,7.0,2024.0
4911089600,CK,,,-21.231037,-159.839531,,20.0,7.0,2024.0
4910880136,US,,,26.784263,-80.042659,,19.0,8.0,2020.0
4910801847,ID,,,-8.288787,124.320599,,8.0,7.0,2024.0
4910787144,ID,,,-8.271985,124.444774,,7.0,7.0,2024.0
4909339675,US,,,24.466571,-81.844041,,3.0,7.0,2024.0
4909320822,HN,,,16.352456,-86.443781,,6.0,7.0,2024.0
4909287197,NC,,,-22.297778,166.436322,,10.0,7.0,2024.0
4909130551,ID,,,-8.411921,119.868061,,13.0,7.0,2024.0
4909085959,MX,,,20.50717,-86.944624,,15.0,7.0,2024.0
4909067517,HN,,,15.971625,-86.494098,,31.0,8.0,2012.0
4909046226,VI,,,18.316972,-64.784442,,5.0,7.0,2024.0
4908988879,ID,,,-8.411374,119.867817,,13.0,7.0,2024.0
4908939311,US,,,24.827389,-80.815092,,4.0,7.0,2024.0
4908908800,PA,,,9.561779,-78.860051,,17.0,6.0,2024.0
4908814614,PH,,,9.212992,124.763037,,12.0,7.0,2024.0
4908675710,VU,,,-17.816195,168.375311,,3.0,1.0,2021.0
4908583902,VI,,,17.713602,-64.888114,,19.0,6.0,2024.0
4908535098,HK,,,22.361489,114.378013,,14.0,7.0,2024.0
4908509273,PH,,,12.191713,120.102694,,24.0,4.0,2024.0
4908445957,TO,,,-19.796368,-174.387717,,21.0,9.0,2011.0
4908330016,GP,,,15.871423,-61.583423,,13.0,7.0,2024.0
4908328586,WS,,,-13.442305,-172.362791,,24.0,8.0,2018.0
4908261226,CK,,,-21.2311,-159.7955,,1.0,10.0,2001.0
4908248195,FJ,,,-18.893642,178.520032,,14.0,11.0,2012.0
4908162689,VI,,,18.341669,-64.977972,,12.0,7.0,2024.0
4908149431,NC,,,-22.304203,166.433977,,13.0,7.0,2024.0
4908023400,AU,,,-30.938729,153.101208,,16.0,7.0,2016.0
4908015460,ID,,,-8.411866,119.867829,,14.0,7.0,2024.0
4904345142,GU,,,13.475616,144.715546,,29.0,6.0,2024.0
4904321506,ID,,,-0.438528,130.782833,,29.0,10.0,2023.0
4904321409,ID,,,1.48155,125.237374,,1.0,2.0,2013.0
4904304025,BB,,,13.190914,-59.640323,,19.0,6.0,2024.0
4904273124,VU,,,-19.50558,169.242743,,25.0,6.0,2024.0
4904262853,AU,,,-27.955902,153.451923,,16.0,6.0,2024.0
4904244512,ID,,,-8.233653,117.47446,,28.0,6.0,2024.0
4904217498,HN,,,16.372729,-86.384458,,25.0,7.0,2022.0
4904179450,FJ,,,-17.263989,177.097432,,1.0,12.0,2007.0
4904141577,AU,,,-27.955902,153.451923,,16.0,6.0,2024.0
4904126416,ID,,,1.420572,124.707247,,22.0,5.0,2019.0
4904103702,FJ,,,-18.990415,178.14822,,19.0,11.0,2012.0
4904085264,HN,,,15.83139,-87.473589,,26.0,4.0,2024.0
4904052721,ID,,,1.420572,124.707247,,22.0,5.0,2019.0
4904051341,ID,,,1.457793,125.218885,,26.0,4.0,2016.0
4904018599,ID,,,-8.350171,116.088617,,30.0,6.0,2024.0
4903995925,ID,,,-8.533746,119.619599,,27.0,6.0,2024.0
4903983097,HN,,,15.880106,-87.462846,,26.0,4.0,2024.0
4903925557,PH,,,13.688464,120.899805,,25.0,3.0,2023.0
4903924887,US,,,28.445228,-94.316791,,26.0,6.0,2024.0
4903890237,ID,,,-8.209886,119.001292,,27.0,6.0,2024.0
4903884282,HN,,,15.880106,-87.462846,,26.0,4.0,2024.0
4903858936,VU,,,-15.523771,167.235375,,25.0,6.0,1993.0
4903857078,PG,,,-4.20131,152.104447,,5.0,5.0,2011.0
4903855759,ID,,,-8.233653,117.47446,,28.0,6.0,2024.0
4903788159,ID,,,1.411728,124.630686,,26.0,5.0,2019.0
4903762176,NZ,,,-29.242817,-177.878092,,23.0,10.0,2020.0
4903725959,PH,,,9.923113,123.343529,,17.0,6.0,2023.0
4903720781,TW,,,25.144459,121.805952,,15.0,4.0,2023.0
4902124742,MX,,,21.20024,-86.727264,,12.0,2.0,2016.0
4902105396,NC,,,-22.297778,166.436322,,16.0,6.0,2024.0
4902087133,JP,,,31.682176,130.432044,,22.0,6.0,2024.0
4902077412,NC,,,-22.296044,166.436083,,13.0,6.0,2024.0
4902056709,US,,,26.770828,-80.04488,,27.0,5.0,2024.0
4902013748,PH,,,8.85,119.933333,,17.0,5.0,2024.0
4901989583,PH,,,8.793937,119.846067,,17.0,3.0,2024.0
4901963318,ID,,,-2.221629,130.61156,,12.0,5.0,2024.0
4901920129,PH,,,9.197687,123.275745,,18.0,5.0,2024.0
4901903005,BQ,,,12.212486,-68.330833,,13.0,6.0,2024.0
4901877133,BQ,,,12.212486,-68.330833,,13.0,6.0,2024.0
4901854190,CR,,,9.752694,-82.817885,,11.0,5.0,2024.0
4901838683,NC,,,-22.296594,166.436165,,25.0,6.0,2024.0
4901832346,NC,,,-19.815,158.37,,15.0,8.0,2010.0
4901777742,JP,,,31.851416,130.413948,,22.0,6.0,2024.0
4901764186,PH,,,13.532813,121.103597,,15.0,6.0,2024.0
4901753171,BQ,,,12.096359,-68.286184,,10.0,6.0,2024.0
4901743251,BQ,,,12.177736,-68.293028,,12.0,6.0,2024.0
4901739912,PH,,,12.760488,121.774017,,7.0,2.0,2024.0
4901691325,PA,,,9.255916,-82.033576,,3.0,10.0,2015.0
4901674123,AU,,,-27.955902,153.451923,,16.0,6.0,2024.0
4901601456,TW,,,22.046944,120.696358,,16.0,5.0,2024.0
4901579468,HN,,,16.357955,-86.422083,,12.0,6.0,2024.0
4901562222,NC,,,-22.296722,166.437492,,13.0,6.0,2024.0
4901557670,HN,,,16.357419,-86.42185,,10.0,6.0,2024.0
4901454638,BQ,,,12.082961,-68.282394,,14.0,6.0,2024.0
4901447067,JM,,,18.170694,-76.374617,,21.0,5.0,2024.0
4901420509,GP,,,16.173752,-61.781973,,18.0,1.0,2024.0
4901403189,ID,,,-8.404174,116.059827,,21.0,2.0,2024.0
4901401515,BQ,,,12.168889,-68.310125,,11.0,6.0,2024.0
4901368252,AU,,,-27.955902,153.451923,,16.0,6.0,2024.0
4901352785,BQ,,,12.212486,-68.330833,,13.0,6.0,2024.0
4901345070,NC,,,-22.297778,166.436322,,13.0,6.0,2024.0
4901288449,BQ,,,12.200794,-68.31018,,12.0,6.0,2024.0
4901247310,TW,,,25.144223,121.807391,,28.0,6.0,2020.0
4901208124,AU,,,-27.163533,153.368107,,7.0,6.0,2024.0
4901177670,BQ,,,12.154804,-68.329231,,11.0,6.0,2024.0
4901173851,GU,,,13.386884,144.651303,,1.0,6.0,2024.0
4901112505,VU,,,-17.762867,168.277874,,23.0,5.0,2024.0
4901059105,AU,,,-14.791597,145.696998,,15.0,6.0,2010.0
4901039046,BQ,,,12.154804,-68.329231,,11.0,6.0,2024.0
4901032387,BQ,,,12.168889,-68.310125,,11.0,6.0,2024.0
4900963628,JP,,,31.820668,130.944771,,22.0,6.0,2024.0
4900861548,VI,,,17.713748,-64.88792,,18.0,11.0,2021.0
4898423301,US,"Atlantic Ocean, Florida, east of Upper Matecumbe Key, Aquarium Reef",,24.89203,-80.55428,,14.0,6.0,2024.0
4894975421,AU,locality withheld,,-28.195188,153.57563,,,5.0,2021.0
4894892503,AU,locality withheld,,-28.194,153.576828,,,5.0,2023.0
4894841200,AU,locality withheld,,-28.19519,153.575534,,,5.0,2023.0
4894487925,AU,locality withheld,,-28.194,153.576828,,,6.0,2022.0
4892770745,JP,,,24.4,123.7,,12.0,10.0,2023.0
4892156882,AU,,,-28.151423,153.515619,,8.0,6.0,2024.0
4892118448,TW,,,22.012349,121.590906,,5.0,6.0,2024.0
4892092878,AU,,,-19.3044,147.62,,5.0,6.0,2024.0
4892087320,US,,,24.460244,-81.737886,,10.0,6.0,2024.0
4892078104,PA,,,9.252035,-82.039833,,9.0,6.0,2024.0
4892037421,JP,,,26.648594,127.815394,,6.0,6.0,2024.0
4892034781,AU,,,-28.151423,153.515619,,8.0,6.0,2024.0
4892025656,AU,,,-19.304694,147.625444,,5.0,6.0,2024.0
4891873215,HN,,,16.31844,-86.591019,,15.0,11.0,2023.0
4891761825,AU,,,-19.304694,147.624098,,5.0,6.0,2024.0
4891723016,MQ,,,14.725813,-61.182205,,8.0,6.0,2024.0
4890617197,EG,Sinai - Dahab,1.0,28.501,34.5134,,8.0,7.0,2008.0
4875542939,TW,,,22.675908,121.472654,,24.0,5.0,2024.0
4875541472,US,,,25.052427,-80.331817,,26.0,5.0,2024.0
4875516018,AU,,,-28.705064,113.826133,,10.0,9.0,2022.0
4875494718,BZ,,,17.739515,-88.030802,,28.0,5.0,2024.0
4875481359,KY,,,19.377041,-81.315681,,17.0,5.0,2024.0
4875464546,MQ,,,14.527785,-61.089221,,15.0,4.0,2024.0
4875421041,AU,,,-31.55,159.07,,31.0,5.0,1989.0
4875411664,KY,,,19.226016,-81.240163,,25.0,5.0,2024.0
4875387843,ID,,,-8.26752,123.548482,,13.0,5.0,2024.0
4875384917,CU,,,19.890279,-75.144346,,3.0,6.0,2024.0
4875363067,JP,,,28.393781,129.496988,,24.0,5.0,2024.0
4875348682,CU,,,19.901692,-75.22047,,29.0,5.0,2024.0
4875334556,KY,,,19.354576,-81.370032,,25.0,5.0,2024.0
4875261088,GP,,,15.880376,-61.592574,,24.0,5.0,2018.0
4875200878,ID,,,2.284566,118.236489,,31.0,5.0,2024.0
4875186112,AU,,,-31.55,159.07,,11.0,11.0,2013.0
4875148158,HN,,,16.304063,-86.59504,,13.0,3.0,2024.0
4875105926,KY,,,19.337177,-81.396402,,29.0,3.0,2016.0
4875104432,AU,,,-28.705064,113.826133,,10.0,9.0,2022.0
4875099089,MQ,,,14.493672,-61.091379,,1.0,6.0,2024.0
4875042502,KY,,,19.345711,-81.318615,,25.0,5.0,2024.0
4875014551,CU,,,19.892919,-75.139454,,1.0,6.0,2024.0
4875007693,AU,,,-28.843676,113.828997,,10.0,9.0,2022.0
4874997064,TW,,,22.675908,121.472654,,24.0,5.0,2024.0
4874905301,US,"Atlantic Ocean, Florida Keys, Key Largo, USS Spiegel Grove (dive site)",,25.0671,-80.3002,,30.0,5.0,2024.0
4872915716,PH,,,10.376,114.371,7.5,,,
4872915711,PH,,,10.381,114.361,20.5,,,
4872880515,TW,,,20.717,116.733,2.0,,,
4872880514,TW,,,20.717,116.733,9.0,,,
4872880511,TW,,,20.717,116.733,7.0,,,
4872880510,TW,,,20.717,116.733,7.0,,,
4872642054,AU,,,-29.925962,153.387493,,16.0,4.0,2024.0
4872617436,GU,,,13.471307,144.703207,,20.0,2.0,2023.0
4872610749,FJ,,,-18.358796,178.080283,,21.0,5.0,2024.0
4872571570,MQ,,,14.527349,-61.088761,,12.0,4.0,2024.0
4872553710,NC,,,-22.550638,166.796626,,19.0,5.0,2024.0
4872550129,KY,,,19.360692,-81.222447,,21.0,5.0,2024.0
4872529539,CU,,,19.901453,-75.22334,,21.0,5.0,2024.0
4872517635,NZ,,,-29.262,-177.923,,31.0,5.0,1992.0
4872490625,AU,,,-27.935737,153.426319,,26.0,5.0,2024.0
4872477867,ID,,,1.736424,125.145714,,6.0,4.0,2024.0
4872470115,FJ,,,-18.380287,178.071514,,22.0,5.0,2024.0
4872463623,BQ,,,12.171896,-68.289403,,5.0,3.0,2020.0
4872426752,MQ,,,14.52772,-61.089042,,11.0,4.0,2024.0
4872417938,FJ,,,-18.358796,178.080283,,21.0,5.0,2024.0
4872388953,ID,,,-8.336694,115.659304,,15.0,6.0,2015.0
4872346352,FJ,,,-18.358796,178.080283,,21.0,5.0,2024.0
4872254726,NZ,,,-29.262,-177.923,,20.0,5.0,2011.0
4872224285,NZ,,,-29.262,-177.923,,19.0,5.0,2011.0
4872145208,NZ,,,-29.262,-177.923,,4.0,11.0,2004.0
4872127790,BQ,,,12.171578,-68.289257,,5.0,3.0,2020.0
4872093659,NZ,,,-29.262,-177.923,,16.0,5.0,2011.0
4872074827,CU,,,19.891493,-75.131169,,23.0,5.0,2024.0
4872053859,CU,,,19.901397,-75.224151,,21.0,5.0,2024.0
4870432399,US,"Atlantic Ocean, Florida Keys, Benwood Wreck",,25.052667,-80.33367,,10.0,5.0,2024.0
4868174053,KY,,,19.289376,-81.204546,,17.0,5.0,2024.0
4868145093,KY,,,19.234777,-81.340297,,18.0,5.0,2024.0
4868125018,VG,,,18.3,-64.6333,,9.0,5.0,2024.0
4868099778,KY,,,19.397394,-81.365773,,17.0,5.0,2024.0
4868085872,KY,,,19.270164,-81.433175,,16.0,5.0,2024.0
4868042346,US,,,25.111179,-80.431242,,20.0,5.0,2024.0
4868036136,ID,,,-8.411476,119.868747,,28.0,5.0,2022.0
4867998082,AU,,,-30.205483,153.26693,,29.0,3.0,2024.0
4867993779,MQ,,,14.528334,-61.089593,,4.0,1.0,2024.0
4867972305,FJ,,,-18.420967,178.166927,,17.0,5.0,2024.0
4867969219,ID,,,-8.561921,119.809385,,17.0,5.0,2024.0
4867951041,US,,,24.546189,-81.402958,,15.0,5.0,2024.0
4867943220,LC,,,14.1048,-60.94735,,26.0,12.0,2018.0
4867938717,NC,,,-22.297778,166.436322,,24.0,3.0,2024.0
4867906531,HK,,,22.30946,114.365016,,19.0,5.0,2024.0
4867878918,HK,,,22.30946,114.365016,,19.0,5.0,2024.0
4867842795,KY,,,19.281554,-81.584731,,16.0,5.0,2024.0
4867828740,KY,,,19.291393,-81.372851,,18.0,5.0,2024.0
4867824458,TC,,,21.890398,-72.218155,,11.0,5.0,2024.0
4867804541,ID,,,1.612615,124.741981,,28.0,3.0,2024.0
4867769987,PH,,,9.197552,123.275585,,15.0,5.0,2024.0
4867740702,FJ,,,-17.169668,177.218454,,15.0,5.0,2024.0
4867685912,VU,,,-17.486946,168.392279,,6.0,8.0,2005.0
4867654683,ID,,,-8.411715,119.867248,,22.0,5.0,2022.0
4867654466,KY,,,19.227497,-81.546398,,15.0,5.0,2024.0
4867649952,KY,,,19.283485,-81.299913,,18.0,5.0,2024.0
4867627435,MQ,,,14.530651,-61.089558,,1.0,1.0,2024.0
4867621121,AU,,,-16.463353,145.990245,,9.0,5.0,2024.0
4863912481,CR,,,9.749149,-82.817879,,8.0,5.0,2024.0
4863889326,ID,,,-8.349757,115.68318,,26.0,6.0,2023.0
4863873670,TW,,,22.340854,120.370294,,27.0,4.0,2024.0
4863844363,TL,,,-8.556762,125.504058,,17.0,2.0,2024.0
4863812905,PH,,,9.197234,123.27565,,13.0,5.0,2024.0
4863800646,MQ,,,14.780116,-61.2133,,6.0,12.0,2023.0
4863787701,NC,,,-22.297778,166.436322,,6.0,5.0,2024.0
4863759588,CU,,,19.893404,-75.129788,,9.0,5.0,2024.0
4863756417,SX,,,18.017578,-63.093223,,11.0,5.0,2024.0
4863740240,BZ,,,17.200615,-87.538113,,16.0,3.0,2015.0
4863693360,AU,,,-23.169261,113.7566,,10.0,5.0,2018.0
4863675731,TW,,,22.345174,120.388443,,27.0,4.0,2024.0
4863660822,BZ,,,17.226398,-87.604766,,16.0,3.0,2015.0
4863650295,ID,,,-8.541111,119.641944,,12.0,6.0,2023.0
4863623273,VI,,,18.358261,-64.831417,,10.0,7.0,2021.0
4863572742,BS,,,26.111093,-79.5704,,20.0,8.0,2017.0
4863557948,MQ,,,14.73646,-61.180002,,6.0,12.0,2023.0
4863551330,US,,,26.783574,-80.040593,,9.0,5.0,2024.0
4863532622,MX,,,18.704411,-87.679057,,11.0,10.0,2023.0
4863528563,KY,,,19.372712,-81.269878,,13.0,5.0,2024.0
4863517518,VG,,,18.464563,-64.570565,,6.0,5.0,2024.0
4863500337,CU,,,19.891071,-75.131039,,10.0,5.0,2024.0
4863489039,PH,,,7.357868,125.809041,,29.0,4.0,2024.0
4863423889,ID,,,-0.558757,130.672302,,5.0,5.0,2024.0
4863351655,MQ,,,14.73646,-61.180002,,6.0,12.0,2023.0
4855526693,BS,,,25.753815,-79.276937,,5.0,5.0,2024.0
4855523120,FJ,,,-18.326954,178.097811,,1.0,5.0,2022.0
4855508191,AU,,,-28.61082,153.630058,,19.0,11.0,2021.0
4855489143,AU,,,-21.816967,114.191685,,13.0,6.0,2023.0
4855404729,MY,,,4.12202,118.630772,,9.0,5.0,2023.0
4855344316,MY,,,6.015403,116.001619,,20.0,2.0,2009.0
4855305529,HN,,,16.281322,-86.604433,,27.0,6.0,2023.0
4855262778,PH,,,9.893021,123.392341,,21.0,4.0,2024.0
4855256938,FJ,,,-18.327587,178.108556,,4.0,5.0,2022.0
4855182785,PH,,,7.357868,125.809041,,29.0,4.0,2024.0
4855181455,AU,,,-21.816757,114.191547,,16.0,10.0,2022.0
4855179229,PH,,,7.357868,125.809041,,29.0,4.0,2024.0
4855172518,NC,,,-22.297778,166.436322,,2.0,5.0,2024.0
4855158846,AU,,,-26.647032,153.161433,,8.0,8.0,2022.0
4855107655,VG,,,18.369073,-64.508194,,4.0,5.0,2024.0
4855093708,PR,,,18.465861,-66.086818,,29.0,4.0,2024.0
4855039304,MY,,,4.461894,118.709068,,1.0,4.0,2023.0
4855029577,CU,,,19.900727,-75.205342,,2.0,5.0,2024.0
4855014042,AU,,,-30.939266,153.101117,,18.0,11.0,2021.0
4854963984,CU,,,19.901535,-75.205334,,2.0,5.0,2024.0
4854934558,AU,,,-11.729733,143.899764,,20.0,11.0,2022.0
4854915351,AU,,,-27.163606,153.368647,,1.0,5.0,2024.0
4854913904,NC,,,-22.297973,166.436166,,16.0,4.0,2024.0
4854912245,CU,,,19.890904,-75.131018,,4.0,5.0,2024.0
4854891710,MY,,,6.008124,116.00592,,15.0,7.0,2009.0
4854867810,PG,,,-9.568693,147.246376,,26.0,9.0,2010.0
4854862690,MY,,,4.601751,118.946747,,20.0,3.0,2024.0
4853108272,BQ,,,12.045856,-68.268175,,14.0,9.0,2023.0
4853058541,AU,,,-15.399513,145.779231,,7.0,10.0,2020.0
4853013591,HN,,,16.083258,-86.895836,,21.0,1.0,2017.0
4853006694,AU,,,-28.611592,153.628972,,20.0,4.0,2024.0
4852964809,DO,,,18.329678,-68.838746,,7.0,12.0,2023.0
4852948230,ID,,,-0.558596,130.667208,,4.0,3.0,2024.0
4852934886,DO,,,18.32798,-68.831966,,10.0,12.0,2023.0
4852921287,PG,,,-9.534652,147.276661,,7.0,3.0,2024.0
4852853442,DO,,,18.329678,-68.838746,,10.0,12.0,2023.0
4852841636,BM,,,32.320697,-64.710564,,21.0,4.0,2024.0
4852813037,DO,,,18.329678,-68.838746,,9.0,12.0,2023.0
4852780964,VU,,,-17.594009,168.244051,,25.0,11.0,2023.0
4852722534,MY,,,6.699363,116.341993,,26.0,10.0,2010.0
4852718370,ID,,,-5.595315,120.472274,,7.0,2.0,2024.0
4852717433,PG,,,-9.537137,147.275495,,2.0,9.0,2005.0
4852699873,PH,,,9.092612,123.193704,,3.0,6.0,2023.0
4852682346,TW,,,21.943075,120.757459,,20.0,8.0,2023.0
4852678650,ID,,,-7.383693,128.562269,,17.0,10.0,2023.0
4852677241,CC,,,-12.087474,96.873681,,11.0,6.0,2023.0
4852664398,BQ,,,12.200205,-68.308623,,11.0,4.0,2024.0
4852663003,ID,,,-8.262174,124.35303,,3.0,10.0,2023.0
4852657242,ID,,,-8.156412,127.702413,,16.0,10.0,2023.0
4852609148,JP,,,26.306954,127.750182,,4.0,6.0,2019.0
4852573860,PH,,,7.35896,125.809632,,29.0,4.0,2024.0
4852563797,TW,,,21.931175,120.745089,,19.0,8.0,2023.0
4852472536,ID,,,-8.541111,119.641944,,12.0,6.0,2023.0
4852453064,PG,,,-9.568693,147.246376,,29.0,9.0,2010.0
4852402167,PH,,,9.587356,123.80763,,13.0,1.0,2024.0
4852402166,PH,,,9.587356,123.80763,,13.0,1.0,2024.0
4852372148,TW,,,25.146233,121.806316,,21.0,3.0,2024.0
4852305068,ID,,,-2.151347,130.532402,,28.0,2.0,2024.0
4852204848,AU,,,-28.611592,153.628972,,20.0,4.0,2024.0
4852204293,ID,,,-0.252296,130.304743,,20.0,11.0,2023.0
4852172164,AU,,,-27.163415,153.368213,,19.0,1.0,2024.0
4852153194,VU,,,-17.594009,168.244051,,25.0,11.0,2023.0
4852150031,ID,,,-3.715676,128.103161,,22.0,5.0,2014.0
4852138312,PH,,,9.087763,123.191071,,19.0,6.0,2023.0
4852117466,BS,,,24.089582,-76.57233,,13.0,3.0,2024.0
4852010269,ID,,,-0.513351,130.459791,,28.0,2.0,2024.0
4851961648,PH,,,11.349269,124.122245,,18.0,6.0,2023.0
4851952761,ID,,,2.284559,118.242429,,5.0,4.0,2024.0
4851925735,ID,,,-5.77613,123.894104,,4.0,4.0,2024.0
4851908715,BM,,,32.320559,-64.705754,,18.0,4.0,2024.0
4851843534,PG,,,-10.446084,150.721436,,5.0,3.0,2024.0
4851816421,TW,,,21.938846,120.745958,,20.0,8.0,2023.0
4851792911,ID,,,1.458454,125.22231,,26.0,9.0,2023.0
4851787876,ID,,,-8.257386,115.609461,,30.0,11.0,2023.0
4851784280,GU,,,13.549256,144.802271,,17.0,3.0,2021.0
4851784234,PH,,,9.123619,123.217681,,16.0,5.0,2019.0
4851781315,PH,,,9.11839,123.21227,,18.0,9.0,2023.0
4851778065,MY,,,6.008124,116.00592,,17.0,11.0,2007.0
4851767506,NC,,,-22.297778,166.436322,,19.0,4.0,2024.0
4851764828,ID,,,1.481223,125.253225,,2.0,11.0,2023.0
4851737110,GU,,,13.465126,144.687293,,22.0,4.0,2024.0
4847258735,ID,,,-2.219383,130.5592,,15.0,3.0,2024.0
4847169849,PA,,,9.587586,-79.663353,,29.0,3.0,2024.0
4847148373,ID,,,-0.59147,130.605736,,15.0,4.0,2024.0
4847133144,SB,,,-8.4301,157.951632,,27.0,3.0,2024.0
4847100503,NC,,,-22.297778,166.436322,,16.0,4.0,2024.0
4847055175,ID,,,-6.566172,121.098326,,6.0,4.0,2024.0
4846966301,HN,,,16.338152,-86.47563,,11.0,4.0,2024.0
4846873190,MX,,,20.29733,-87.00732,,7.0,2.0,2024.0
4846854438,US,,,25.692618,-80.133702,,6.0,4.0,2024.0
4846798296,KY,,,19.336812,-81.390861,,11.0,4.0,2024.0
473396802,FJ,"Suva, Fiji Is.",1.0,-18.166425,178.430157,,,,
473371545,VU,At Santo.,1.0,-15.14146,166.869945,,,,
473364209,ZA,"Island Rock, Kwazulu Reef",1.0,-27.277538,32.776151,,28.0,7.0,1976.0
473279747,PG,"Rabaul, at Simpson Harbor.  Cruise 6, Sta. 236.",1.0,-4.220556,152.151667,1.525,28.0,2.0,1965.0
473236603,PH,Mactan Island; off east side (off Buyong Beach)just slightly NE of Sta. SP 78-29,1.0,10.285833,124.001667,15.25,3.0,6.0,1978.0
473227175,MH,"Runit I., Cactus & LaCrosse Crater.",2.0,11.553295,162.347684,,,,
473128379,ID,Flores I.; Maumere village; afternoon dive ca. 1 km. offshore of fuel dock.,1.0,-8.610203,122.228201,11.43,25.0,9.0,1987.0
473127689,SB,"Alite Reef, near Guadalcanal, over reef slope",1.0,-8.885548,160.62521,10.67,2.0,4.0,1985.0
473127685,SB,"Alite Reef, near Guadalcanal, at base of coral headon reef top.",1.0,-8.885548,160.62521,3.05,2.0,4.0,1985.0
473066104,VN,"West shore of Ilot Du Sud (Cu Lao Thu), off southern tip of Poulo Cecir de Mer; coral reef habitat.",2.0,10.4875,108.958333,3.5,10.0,3.0,1960.0
473066006,VN,"West shore of Ilot Du Sud (Cu Lao Thu), off southern tip of Poulo Cecir de Mer; coral reef habitat.",1.0,10.4875,108.958333,3.5,10.0,3.0,1960.0
473058673,FM,"Northeast of Tomil Village; crater-like depression in the reef, just offshore from a small brackish stream.",1.0,9.508056,138.160278,0.915,2.0,1.0,1960.0
473057352,FM,"Reef southeast of Rull Dist.; inner slope of reef, scoured limestone w/ dead coral blocks in vic. of wreck.",1.0,9.458889,138.105556,0.915,25.0,12.0,1959.0
473055601,FM,"West side of Map I., ca. 100-300 ft. from mangrove and clay shore; water very turbid, 2-4' deep.",2.0,9.575833,138.156667,0.915,16.0,12.0,1959.0
473049227,GU,Channel on east side of Paseo de Susanna at mouth of Agana R.,1.0,13.478333,144.751111,1.525,25.0,1.0,1959.0
473023422,PW,"Off se. edge of a sand island (Chol I.) on Augulpelu reef, from 0-100 ft. from shore; eel grass & algae; rising tide.",1.0,7.286667,134.518333,0.61,29.0,9.0,1957.0
473022629,PW,Off northwest side of Chol I. (a sand island rising to ca. 7-8 feet at low tide).,1.0,7.286944,134.518333,1.22,23.0,9.0,1957.0
473016972,PF,Lagoon off wharf at Fari.,1.0,-16.715257,-151.039916,21.34,9.0,5.0,1957.0
473010688,PW,Palau,1.0,7.044722,134.288611,1.22,20.0,9.0,1956.0
473010081,FM,"E. side, on reef ca. 1200 yds. from e. edge of channel to Kolenia (Yaptown), and same distance n. of s. edge of reef.",1.0,9.498056,138.15,1.525,3.0,9.0,1956.0
473005917,FM,"Lagoon side of outer west reef, west of Kanif Village; holes in coral flat of outer reef; no vegetation; low tide.",1.0,9.523611,138.072222,1.83,5.0,7.0,1956.0
473005047,PW,Southeast coast; inner margin of reef near pass southwest of Nardueis I.,1.0,7.343333,134.579444,,4.0,11.0,1955.0
473005011,PW,Inner margin of reef southwest of Nardueis I.; southeast coast of Babelthuap I.,2.0,7.345833,134.579722,,4.0,11.0,1955.0
473004110,PW,East side of mouth of Kaki-Suido (Oyster Pass) between XXIX and se. end of Koror I.,1.0,7.315833,134.5025,2.5900000000000003,22.0,10.0,1955.0
473003969,PW,"Eelgrass beds at mouth of Youlbeluu R. entering Ngid Passage, east side of island; mangrove & mud shore.",1.0,7.577222,134.638889,,4.0,10.0,1955.0
473003696,PW,"Between Galbuis Point and Ngarabekus I., ca. 0.5 mile off mangrove shore; water brown, turbid, 6-10' deep.",1.0,7.483889,134.518889,1.525,23.0,9.0,1955.0
473001668,PW,"In mouth of bay in southernmost shore of island, and at narrow neck south of first wide place; 0-10 yds. offshore.",4.0,7.297778,134.488889,1.83,10.0,8.0,1955.0
473000514,PW,Peleliu boat channel between Ngargersul and Kongauru Is.; app. 1 mile e. of n. tip of Peleliu I.; water 1-10' deep.,3.0,7.0475,134.295,1.6749999999999998,24.0,7.0,1955.0
473000234,PW,"Eelgrass sand and coral flat in Geruheru-gairu Pass, between Kaibakku I. and Kogai-hento, Auluptagel I.",1.0,7.32,134.493611,0.455,22.0,7.0,1955.0
472988695,FM,"Shore reef near Fan Nap men's house, Rauau Village, Falarik Islet; app. 25' off sandy shore; high tide.",1.0,7.250556,144.45,1.22,26.0,10.0,1953.0
472988515,FM,"Lagoon shore reef of Falarik Islet; app. 50' off sandy shore; low tide; water clear, 0.5 fm. deep; turtlegrass.",1.0,7.253056,144.450278,0.91,26.0,10.0,1953.0
472987694,FM,"Shore reef off Fan Nap men's house, Rauau Village, Falarik Islet; 150' offshore; water clear, 2 fms. deep; algae.",1.0,7.251389,144.450278,3.66,21.0,10.0,1953.0
472984282,FM,"Nimweo Pass, between Falarik and Falalap Islets.",2.0,7.248611,144.454167,7.62,17.0,9.0,1953.0
472973621,FJ,Barrier Reef off Suva - 0ff wreck on main channel.  Spur & groove - deep section.,1.0,-18.163933,178.400333,8.075,31.0,1.0,2002.0
472938570,PG,"Kiriwina, Trobriand Is.  Sta. # BBC-1522.",1.0,-8.646468,151.075728,,15.0,6.0,1970.0
472938508,PG,"Madang, at enclosed Bay behind Inst. Hum. Biol. at hospital.",1.0,-5.22119,145.797978,0.455,22.0,5.0,1970.0
472928372,PH,Dumaguete.,1.0,9.307,123.3074,,17.0,7.0,1948.0
472916647,MH,Cargo pier.,3.0,10.0,167.0,1.98,,9.0,1971.0
4607603164,CU,,,19.893998,-75.128284,,5.0,4.0,2024.0
4607594881,PH,,,13.517664,120.960128,,29.0,3.0,2024.0
4607555342,US,,,24.71672,-81.02423,,31.0,3.0,2024.0
4607545593,US,,,26.782564,-80.042743,,6.0,4.0,2024.0
4607538872,TW,,,22.676136,121.472704,,9.0,3.0,2024.0
4607504151,CU,,,19.894185,-75.128475,,5.0,4.0,2024.0
4607468719,CU,,,19.887864,-75.158048,,29.0,12.0,2023.0
4607460234,CU,,,19.900253,-75.172503,,23.0,3.0,2024.0
4607434484,CU,,,19.89683,-75.16899,,18.0,5.0,2023.0
4607412515,GD,,,11.98207,-61.773518,,1.0,4.0,2024.0
4607407753,CU,,,19.890068,-75.166448,,10.0,3.0,2024.0
4607395856,HN,,,16.332729,-86.477562,,10.0,4.0,2024.0
4607389549,CU,,,19.900214,-75.168981,,19.0,4.0,2023.0
4607374109,CU,,,19.892564,-75.134917,,29.0,11.0,2023.0
4607360079,CU,,,19.897218,-75.168124,,6.0,7.0,2023.0
4607358300,AU,,,-28.194749,153.577054,,31.0,3.0,2024.0
4607314753,NC,,,-22.297778,166.436322,,4.0,4.0,2024.0
4607309415,AU,,,-28.611592,153.628972,,25.0,3.0,2024.0
4607306919,CU,,,19.900355,-75.170814,,25.0,8.0,2023.0
4607237090,CU,,,19.893324,-75.175975,,26.0,4.0,2023.0
4607216611,CU,,,19.890026,-75.162198,,31.0,1.0,2024.0
4607159341,NC,,,-22.297778,166.436322,,10.0,4.0,2024.0
4607149195,NC,,,-22.297778,166.436322,,9.0,4.0,2024.0
4607145569,CU,,,19.892364,-75.168144,,27.0,4.0,2023.0
4607120783,GD,,,12.037533,-61.768082,,6.0,4.0,2024.0
4607112057,ID,,,3.225265,106.220924,,22.0,7.0,2023.0
4607098910,VI,,,18.37072,-64.808711,,5.0,4.0,2024.0
4607095931,CU,,,19.891263,-75.152524,,3.0,10.0,2023.0
4607092159,BS,,,24.121723,-74.474616,,23.0,2.0,2024.0
4607050420,CU,,,19.892143,-75.148967,,2.0,10.0,2023.0
4607045257,CU,,,19.88991,-75.16217,,31.0,1.0,2024.0
4607007436,CU,,,19.900199,-75.17083,,3.0,2.0,2023.0
4606999521,NC,,,-22.297778,166.436322,,3.0,4.0,2024.0
4606997827,ID,,,-0.568842,130.659355,,18.0,1.0,2024.0
4606968375,CU,,,19.893506,-75.11412,,28.0,3.0,2023.0
4606933301,CU,,,19.891807,-75.155086,,11.0,11.0,2022.0
4606932500,NC,,,-22.296792,166.437435,,30.0,3.0,2024.0
4606870194,CU,,,19.897458,-75.168371,,4.0,3.0,2024.0
4606831165,GD,,,11.981573,-61.77309,,30.0,3.0,2024.0
4606825413,MQ,,,14.604726,-61.096992,,1.0,3.0,2024.0
4606797562,BM,,,32.249295,-64.847236,,4.0,4.0,2024.0
4606790645,PR,,,17.916644,-66.235835,,4.0,1.0,2024.0
4606733393,BQ,,,12.168264,-68.303571,,14.0,3.0,2024.0
4606705797,CN,,,18.215206,109.481648,,28.0,3.0,2024.0
4606684785,CU,,,19.900403,-75.169183,,8.0,3.0,2024.0
4606674707,CU,,,19.900217,-75.169204,,20.0,3.0,2024.0
4606669608,CU,,,19.899464,-75.169701,,13.0,2.0,2024.0
4606668466,CU,,,19.898358,-75.170693,,28.0,2.0,2024.0
4606635031,CU,,,19.901051,-75.227048,,25.0,6.0,2023.0
4606633904,CU,,,19.894079,-75.129138,,12.0,3.0,2024.0
4606625136,CU,,,19.886831,-75.158295,,4.0,1.0,2024.0
4606615391,CU,,,19.905759,-75.190259,,4.0,11.0,2022.0
4606614100,MQ,,,14.59465,-61.050037,,5.0,3.0,2024.0
4606609990,CU,,,19.891939,-75.152351,,26.0,7.0,2023.0
4606606206,MX,,,20.853387,-86.870632,,28.0,3.0,2024.0
4606604268,CU,,,19.886269,-75.158581,,12.0,1.0,2024.0
4606601433,CU,,,19.891666,-75.154966,,11.0,11.0,2022.0
4606599880,CU,,,19.892789,-75.148316,,27.0,11.0,2023.0
4606594685,CU,,,19.911496,-75.168497,,5.0,5.0,2023.0
4606577410,CU,,,19.894128,-75.173225,,26.0,3.0,2023.0
4606576155,CU,,,19.890316,-75.16563,,10.0,3.0,2024.0
4606575655,CU,,,19.894745,-75.131509,,1.0,9.0,2023.0
4606565261,CU,,,19.903735,-75.213642,,11.0,6.0,2023.0
4606565009,CU,,,19.892214,-75.165925,,1.0,2.0,2023.0
4600206938,BS,,,23.962546,-74.554238,,6.0,4.0,2019.0
4600192561,NC,,,-22.297778,166.436322,,25.0,3.0,2024.0
4600185305,HN,,,16.406567,-86.279708,,19.0,3.0,2024.0
4600184792,CO,,,11.29651,-74.19343,,24.0,3.0,2024.0
4600178124,BZ,,,18.000521,-87.908251,,19.0,3.0,2024.0
4600177497,BS,,,23.956112,-74.561331,,14.0,5.0,2019.0
4600154753,AU,,,-22.033452,113.913576,,22.0,3.0,2024.0
4600153752,CO,,,11.296304,-74.193167,,24.0,3.0,2024.0
4600148837,CO,,,11.250574,-74.231659,,24.0,3.0,2024.0
4600120930,MY,,,6.011496,116.009952,,30.0,9.0,2006.0
4600118936,BS,,,23.956062,-74.561377,,6.0,4.0,2019.0
4600091525,MS,,,16.762087,-62.224869,,17.0,6.0,2017.0
4600086788,TW,,,23.669787,121.597303,,12.0,12.0,2023.0
4600083170,NC,,,-22.296767,166.437472,,24.0,3.0,2024.0
4600051145,NC,,,-22.300793,166.436547,,4.0,7.0,2022.0
4600008937,PA,,,9.313354,-82.208786,,20.0,3.0,2024.0
4599989094,MQ,,,14.747665,-61.179651,,3.0,3.0,2024.0
4599979419,HN,,,16.406567,-86.279708,,19.0,3.0,2024.0
4599965693,CO,,,11.25054,-74.231758,,24.0,3.0,2024.0
4599927736,MY,,,5.162114,115.17658,,13.0,9.0,2010.0
4599902579,MQ,,,14.46608,-61.077805,,9.0,3.0,2024.0
4599889136,AU,,,-30.939379,153.101253,,24.0,3.0,2024.0
4599868432,HN,,,16.406567,-86.279708,,19.0,3.0,2024.0
4599868389,PR,,,18.470121,-66.09068,,19.0,3.0,2024.0
4599850215,BQ,,,12.171993,-68.289473,,20.0,1.0,2019.0
4599848997,CU,,,21.101894,-75.936715,,7.0,12.0,2015.0
4599711815,CX,,,-10.463056,105.643757,,17.0,11.0,2022.0
4598071304,US,"Gulf of Mexico, Florida Keys, Duck Key Bridge",,24.78115,-80.91399,,17.0,3.0,2024.0
4597609436,MQ,,,14.598556,-61.083638,,7.0,3.0,2024.0
4597595711,MY,,,4.171905,118.633476,,22.0,9.0,2000.0
4597589644,AU,,,-28.11435,153.470213,,9.0,12.0,2023.0
4597585345,MY,,,4.220638,118.688456,,15.0,12.0,2010.0
4597557945,VU,,,-17.771089,168.308573,,6.0,2.0,2023.0
4597552485,NC,,,-22.297778,166.436322,,16.0,3.0,2024.0
4597544740,FJ,,,-17.774766,177.170656,,17.0,3.0,2024.0
4597514515,GP,,,16.169472,-61.773139,,9.0,12.0,2023.0
4597501145,CO,,,11.207145,-74.240102,,7.0,3.0,2024.0
4597495638,ID,,,-8.537208,119.734537,,26.0,6.0,2010.0
4597474131,PA,,,9.440891,-79.780771,,16.0,3.0,2024.0
4597472321,ID,,,-5.795948,123.831171,,21.0,1.0,2024.0
4597433502,GP,,,16.30999,-61.801059,,27.0,4.0,2019.0
4597427452,GP,,,16.296381,-61.80898,,22.0,4.0,2019.0
4597419737,TC,,,21.621716,-72.193465,,13.0,3.0,2024.0
4597397264,GP,,,16.303922,-61.801888,,4.0,4.0,2018.0
4597391160,CO,,,11.208017,-74.239457,,30.0,11.0,2018.0
4597339723,GP,,,16.295169,-61.804907,,20.0,4.0,2022.0
4597339331,PG,,,-9.570819,147.247331,,25.0,2.0,2007.0
4597336493,MY,,,6.005385,116.008357,,8.0,6.0,2010.0
4597329327,AU,,,-27.744762,153.453958,,3.0,3.0,2024.0
4597237387,BS,,,24.124024,-74.457868,,2.0,3.0,2019.0
4597211383,BS,,,24.123133,-74.458404,,27.0,2.0,2019.0
4597188393,PA,,,9.440576,-79.781896,,16.0,3.0,2024.0
4597169960,TC,,,21.804749,-72.171873,,8.0,5.0,2018.0
4597142649,US,,,26.783452,-80.041436,,15.0,3.0,2024.0
4597134305,PA,,,9.443617,-79.776297,,16.0,3.0,2024.0
4597123168,NC,,,-22.297778,166.436322,,18.0,3.0,2024.0
4597117846,VU,,,-17.770763,168.308829,,10.0,2.0,2023.0
4597074757,CU,,,19.925563,-75.13888,,24.0,2.0,2024.0
4597063210,CO,,,11.208155,-74.239346,,30.0,11.0,2018.0
4597059859,TW,,,22.344221,120.38951,,8.0,3.0,2024.0
4597052911,ID,,,-8.537208,119.734537,,27.0,6.0,2010.0
4597028330,BB,,,13.192347,-59.642119,,4.0,11.0,2023.0
4597025430,MQ,,,14.526322,-61.089364,,24.0,11.0,2023.0
4596997273,LC,,,13.928825,-61.058219,,17.0,11.0,2023.0
4596994252,ID,,,-5.77954,123.900743,,20.0,1.0,2024.0
4596953539,GP,,,16.277601,-61.8081,,29.0,4.0,2019.0
4596949456,GP,,,16.287897,-61.807493,,19.0,4.0,2019.0
4596943817,KY,,,19.383098,-81.417255,,3.0,3.0,2024.0
4596935294,AU,,,-31.567141,159.074628,,10.0,3.0,2024.0
4596900737,GP,,,16.295169,-61.804907,,20.0,4.0,2022.0
4596886229,ID,,,-2.174696,130.665886,,28.0,2.0,2024.0
4596864158,PG,,,-9.59,147.288333,,19.0,11.0,2006.0
4596850086,PG,,,-9.59,147.288333,,19.0,11.0,2006.0
4548378717,GP,,,16.19761,-61.5398,,,,
4548374331,MQ,,,14.65485,-61.01929,,,,
4547938005,MF,,,18.07928,-63.06085,,,,
4547809002,BL,,,17.90439,-62.83195,,,,
4542806709,MY,,,4.11149,118.63631,,14.0,5.0,1999.0
4542806700,GP,,,16.16972,-61.77778,,22.0,2.0,2023.0
4542806485,GP,,,16.16972,-61.77778,,7.0,3.0,2020.0
4542806445,FR,,,43.19756,5.50988,,26.0,9.0,2022.0
4542802025,GP,,,16.16889,-61.79083,,17.0,3.0,2022.0
4542801875,GP,,,16.16972,-61.77778,,25.0,12.0,2021.0
4542801712,EG,,,25.24528,34.79778,,21.0,11.0,2021.0
4542801456,YT,,,-12.9225,44.97194,,6.0,9.0,2018.0
4542801350,GP,,,16.1397,-61.78019,,29.0,12.0,2022.0
4542797273,MG,,,-13.31928,48.16421,,13.0,6.0,2023.0
4542797072,GP,,,16.16972,-61.78917,,13.0,10.0,2020.0
4542796963,NC,,,-22.48611,166.44444,,28.0,3.0,2023.0
4542796847,NC,,,-22.48611,166.44444,,28.0,3.0,2023.0
4542796645,GP,,,16.10194,-61.77528,,17.0,4.0,2021.0
4542796494,BQ,,,12.18823,-68.29698,,9.0,8.0,2020.0
4542792041,GP,,,16.16611,-61.78972,,1.0,4.0,2023.0
4542791882,GP,,,16.16972,-61.77778,,31.0,1.0,2022.0
4542791820,GP,,,16.16667,-61.79028,,14.0,2.0,2023.0
4542791813,GP,,,16.16889,-61.79083,,26.0,4.0,2021.0
4542791723,NC,,,-22.47259,166.40359,,23.0,3.0,2023.0
4542791344,EG,,,26.75177,34.08674,,3.0,3.0,2020.0
4542786224,NC,,,-22.48611,166.44444,,28.0,3.0,2023.0
4542779267,GP,,,16.16972,-61.77778,,3.0,3.0,2021.0
4542778742,GR,,,37.64222,23.17071,,14.0,5.0,2023.0
4542778560,GP,,,16.36333,-61.5725,,25.0,10.0,2020.0
4542774290,EG,,,25.31195,34.86007,,27.0,5.0,2022.0
4542774149,PH,,,13.52145,120.97372,,30.0,11.0,2019.0
4542773888,EG,,,23.34589,35.85592,,3.0,11.0,2010.0
4542773863,EG,,,26.75996,34.0832,,7.0,4.0,2023.0
4542773479,GP,,,16.165,-61.78194,,19.0,4.0,2023.0
4542773335,GP,,,16.16667,-61.79028,,22.0,3.0,2023.0
4542768988,GP,,,16.17833,-61.78444,,23.0,2.0,2021.0
4542768702,GP,,,16.16972,-61.77778,,25.0,2.0,2022.0
4542768595,MV,,,3.57236,72.91008,,1.0,2.0,2012.0
4542768554,GP,,,16.16611,-61.78972,,15.0,4.0,2021.0
4542766749,DJ,,,11.71418,43.15181,,13.0,11.0,2021.0
4542766437,GP,,,16.19498,-61.78796,,26.0,1.0,2021.0
4542765868,EG,,,27.557,33.8745,,29.0,5.0,2008.0
4542765663,MY,,,4.2457,118.6316,,11.0,8.0,2022.0
4542765531,GP,,,16.1675,-61.7925,,17.0,1.0,2021.0
4542765451,GP,,,16.1675,-61.7925,,22.0,1.0,2023.0
4542765440,GP,,,16.17833,-61.78444,,19.0,2.0,2023.0
4542764955,GP,,,16.17389,-61.78361,,26.0,3.0,2021.0
4542764769,CY,,,34.98607,34.07897,,17.0,4.0,2023.0
4542764363,GP,,,16.16694,-61.78806,,11.0,1.0,2024.0
4542764355,EG,,,27.18706,33.98459,,27.0,1.0,2012.0
4542762433,EG,,,26.75591,34.08097,,15.0,6.0,2015.0
4542761463,PF,,,-17.48944,-149.90778,,24.0,10.0,2023.0
4542761418,EG,,,24.1575,35.71389,,3.0,10.0,2022.0
4542760735,EG,,,24.74683,35.79346,,13.0,9.0,2019.0
4542760492,GP,,,16.29512,-61.80373,,20.0,4.0,2022.0
4542760264,MQ,,,14.43131,-60.87665,,25.0,7.0,2020.0
4542760255,GP,,,16.10194,-61.77528,,8.0,2.0,2022.0
4542760222,GP,,,16.1675,-61.7925,,19.0,3.0,2017.0
4542759874,GP,,,16.16972,-61.78917,,16.0,3.0,2023.0
4542759723,BQ,,,12.18823,-68.29698,,26.0,2.0,2022.0
4542759593,GP,,,16.16972,-61.77778,,23.0,1.0,2022.0
4542759510,YT,,,-12.87,45.27667,,26.0,11.0,2021.0
4542759340,GP,,,16.1397,-61.78019,,29.0,12.0,2017.0
4542756694,TH,,,8.82694,97.79684,,15.0,3.0,2016.0
4542756321,GP,,,16.17665,-61.78674,,5.0,1.0,2023.0
4542756008,PH,,,13.52485,121.07981,,1.0,12.0,2019.0
4542755724,PH,,,13.52136,120.97757,,30.0,11.0,2019.0
4542754956,EG,,,24.21667,35.61278,,26.0,5.0,2022.0
4542754945,GP,,,16.1675,-61.7925,,31.0,1.0,2023.0
4542754934,EG,,,27.15833,33.97917,,22.0,5.0,1995.0
4542754683,PF,,,-15.00889,-148.27889,,20.0,8.0,2023.0
4542754508,EG,,,27.39986,33.87766,,18.0,3.0,2012.0
4542753565,GP,,,16.16972,-61.77778,,30.0,4.0,2021.0
4542753394,GP,,,16.16972,-61.77778,,21.0,2.0,2020.0
4542753138,DJ,,,11.73778,43.27472,,25.0,1.0,2022.0
4542753000,GP,,,15.95472,-61.71056,,11.0,2.0,2023.0
4542752754,MQ,,,14.53694,-61.0875,,7.0,3.0,2023.0
4542752745,EG,,,26.83418,33.99312,,29.0,10.0,2023.0
4542752439,GP,,,16.26806,-61.80639,,4.0,12.0,2022.0
4542752434,GP,,,16.1675,-61.7925,,3.0,1.0,2023.0
4542749167,GP,,,16.16611,-61.78972,,15.0,3.0,2022.0
4542748822,EG,,,25.3096,34.8604,,9.0,10.0,2020.0
4542748579,GP,,,16.31194,-61.80222,,12.0,4.0,2022.0
4542748550,MV,,,3.55506,72.71396,,29.0,12.0,2015.0
4542747568,RE,,,-21.02472,55.22583,,4.0,2.0,2020.0
4542744197,GP,,,16.16972,-61.77778,,9.0,5.0,2021.0
4542743974,GP,,,16.16889,-61.79083,,14.0,2.0,2021.0
4542743884,EG,,,27.60564,33.79626,,27.0,9.0,2023.0
4542743809,PF,,,-17.72776,-149.23768,,3.0,1.0,2021.0
4542743714,RE,,,-21.05374,55.2063,,21.0,7.0,2023.0
4542743601,EG,,,27.53533,33.79444,,22.0,6.0,2023.0
4542743436,GP,,,16.17665,-61.78674,,1.0,11.0,2022.0
4542743373,MQ,,,14.78139,-61.21361,,21.0,4.0,2015.0
4542743085,PH,,,13.52039,120.99124,,2.0,12.0,2019.0
4542742850,EG,,,26.75177,34.08674,,1.0,11.0,2023.0
4542742128,GP,,,16.1397,-61.78019,,18.0,4.0,2023.0
4542742046,GP,,,16.16972,-61.77778,,13.0,2.0,2021.0
4542742015,GP,,,16.17665,-61.78674,,16.0,12.0,2023.0
4542742006,GP,,,16.16889,-61.79083,,4.0,7.0,2023.0
4542741903,GP,,,16.16694,-61.78806,,17.0,1.0,2024.0
4542741848,GP,,,16.16972,-61.77778,,18.0,2.0,2023.0
4542741821,MQ,,,14.78639,-61.21833,,2.0,12.0,2023.0
4542741753,MV,,,2.92864,73.58891,,2.0,2.0,2006.0
4542741516,GP,,,16.1675,-61.7925,,16.0,1.0,2023.0
4542741449,RE,,,-21.02222,55.22833,,3.0,11.0,2022.0
4542741191,TH,,,7.79638,98.53174,,22.0,3.0,2016.0
4542740825,EG,,,26.80278,33.98998,,16.0,11.0,1998.0
4542740757,GP,,,16.16972,-61.77778,,8.0,5.0,2021.0
4542740468,MQ,,,14.49693,-61.09098,,12.0,5.0,2023.0
4542740427,GP,,,16.09722,-61.775,,8.0,11.0,2023.0
4542740057,EG,,,25.07228,34.93702,,31.0,10.0,2010.0
4542739751,GP,,,16.44611,-61.54,,14.0,3.0,2021.0
4542739718,EG,,,27.81366,33.92074,,1.0,8.0,2011.0
4542738926,EG,,,24.2376,35.41607,,10.0,11.0,2023.0
4542738872,DJ,,,11.75417,43.18333,,17.0,10.0,2019.0
4542736115,GP,,,16.17389,-61.78361,,23.0,3.0,2023.0
4542735751,GP,,,15.96167,-61.71,,12.0,1.0,2024.0
4542735714,GP,,,16.09444,-61.78861,,1.0,3.0,2020.0
4542735694,GP,,,16.17389,-61.78361,,1.0,3.0,2023.0
4542735653,GP,,,16.1675,-61.7925,,8.0,4.0,2023.0
4542735633,SC,,,-4.64093,55.37401,,4.0,10.0,2014.0
4542735584,MV,,,3.84713,72.7597,,13.0,11.0,2021.0
4542734439,EG,,,25.07139,34.93694,,19.0,5.0,2023.0
4542732903,EG,,,26.83418,33.99312,,22.0,10.0,2020.0
4542732786,MG,,,-13.31535,48.16899,,13.0,6.0,2023.0
4542732603,GP,,,15.95222,-61.70889,,2.0,4.0,2022.0
4542732553,PF,,,-17.53151,-149.58076,,29.0,11.0,2020.0
4542731933,YT,,,-12.87278,45.27583,,11.0,12.0,2021.0
4542731827,GP,,,16.1397,-61.78019,,13.0,4.0,2021.0
4542731811,GP,,,16.19498,-61.78796,,27.0,12.0,2022.0
4542731307,PF,,,-17.61433,-149.62027,,23.0,9.0,2020.0
4542731127,GP,,,16.17389,-61.78361,,22.0,3.0,2017.0
4542731009,GP,,,16.43752,-61.54205,,19.0,4.0,2019.0
4542730893,GP,,,16.17665,-61.78674,,23.0,2.0,2022.0
4542730174,ID,,,-8.27391,115.5926,,19.0,9.0,2022.0
4542730144,ID,,,-8.27802,115.59584,,21.0,9.0,2022.0
4542729739,GP,,,16.16972,-61.77778,,5.0,5.0,2021.0
4542729647,GP,,,16.1397,-61.78019,,25.0,3.0,2021.0
4542729597,EG,,,26.86068,33.96806,,20.0,4.0,2023.0
4542729512,GP,,,16.17833,-61.78444,,25.0,3.0,2023.0
4542729505,TZ,,,-5.83676,39.38865,,13.0,10.0,2018.0
4542729400,MQ,,,14.59906,-61.09453,,4.0,2.0,2022.0
4542728889,EG,,,26.63944,34.06111,,3.0,4.0,2012.0
4542728851,GP,,,15.98444,-61.72639,,27.0,5.0,2022.0
4542728795,KE,,,-4.31525,39.5834,,13.0,2.0,2022.0
4542728608,EG,,,27.3331,33.917,,24.0,5.0,2022.0
4542728444,BQ,,,12.18823,-68.29698,,9.0,8.0,2020.0
4542728166,PF,,,-17.53694,-149.76278,,22.0,3.0,2022.0
4542728159,EG,,,27.16139,33.98306,,23.0,5.0,2022.0
4542727455,GP,,,16.16667,-61.79028,,17.0,12.0,2022.0
4542727344,EG,,,26.81197,33.98964,,1.0,11.0,2023.0
4542727325,FR,,,43.32342,5.08052,,2.0,6.0,2017.0
4542725679,NC,,,-22.33694,166.24056,,10.0,6.0,2017.0
4542723252,EG,,,25.24528,34.79778,,7.0,11.0,2021.0
4542723226,EG,,,23.34589,35.85592,,23.0,5.0,2022.0
4542723215,EG,,,27.48878,33.80546,,25.0,1.0,2012.0
4542723063,EG,,,27.3528,33.9088,,25.0,4.0,2019.0
4542723020,DO,,,18.26685,-68.80051,,1.0,3.0,2019.0
4542722959,PF,,,-15.00889,-148.27889,,27.0,7.0,2020.0
4542722848,GP,,,16.30366,-61.80194,,29.0,4.0,2019.0
4542722514,PH,,,13.53373,121.1,,1.0,12.0,2019.0
4542722069,GP,,,16.1397,-61.78019,,8.0,7.0,2023.0
4542722004,GP,,,16.17389,-61.78361,,6.0,4.0,2023.0
4542721983,EG,,,23.34589,35.85592,,3.0,11.0,2010.0
4542721821,EG,,,26.63944,34.06111,,23.0,5.0,1996.0
4542721790,GP,,,16.16667,-61.79028,,19.0,3.0,2021.0
4542721569,GP,,,16.16889,-61.79083,,16.0,3.0,2021.0
4542721382,SD,,,19.00396,37.80176,,17.0,5.0,2009.0
4542721370,EG,,,24.37763,35.38545,,26.0,5.0,2022.0
4542720123,MV,,,4.10126,73.52639,,1.0,1.0,2016.0
4542720055,GP,,,16.16694,-61.78806,,14.0,7.0,2023.0
4542719710,GP,,,16.09607,-61.77413,,30.0,12.0,2023.0
4542719530,GP,,,16.17389,-61.78361,,21.0,2.0,2023.0
4542718904,GP,,,16.09607,-61.77413,,21.0,1.0,2022.0
4542718820,GP,,,16.19498,-61.78796,,18.0,2.0,2022.0
4542718639,EG,,,27.35592,33.62789,,10.0,11.0,2020.0
4542718571,GP,,,16.17389,-61.78361,,26.0,3.0,2021.0
4542718131,EG,,,26.63944,34.06111,,18.0,11.0,1998.0
4542717943,EG,,,27.29472,33.83111,,21.0,4.0,2019.0
4542717907,GP,,,16.16694,-61.78806,,22.0,2.0,2023.0
4542717734,EG,,,25.38083,34.71889,,10.0,5.0,2018.0
4542717070,BS,,,24.40833,-76.59472,,17.0,3.0,2014.0
4542716788,EG,,,27.3528,33.9088,,24.0,5.0,2022.0
4542716697,GP,,,16.17389,-61.78361,,12.0,12.0,2018.0
4542716553,MY,,,4.11772,118.62744,,13.0,5.0,1999.0
4542716093,GP,,,16.17389,-61.78361,,30.0,12.0,2022.0
4542716036,GP,,,16.16972,-61.77778,,30.0,3.0,2023.0
4542715865,GP,,,16.16972,-61.77778,,15.0,1.0,2022.0
